"","NAME","lat","lng","NTAName","spot_type"
"1","O'reilly William & Co Ltd",40.7738008716376,-73.96273074562,"Upper East Side-Carnegie Hill","art_gallery"
"2","Organization of Independent Artists - Gallery 402",40.7164685093174,-74.0093857886298,"SoHo-TriBeCa-Civic Center-Little Italy","art_gallery"
"3","Owen Gallery",40.7740008522409,-73.9643517814586,"Upper East Side-Carnegie Hill","art_gallery"
"4","P P O W Gallerie",40.7495854008441,-74.0038926104424,"Hudson Yards-Chelsea-Flatiron-Union Square","art_gallery"
"5","P P O W Inc",40.7229074277133,-74.0017638961458,"SoHo-TriBeCa-Civic Center-Little Italy","art_gallery"
"6","P S 122 Gallery",40.728167741593,-73.984371480022,"East Village","art_gallery"
"7","Pace Editions",40.7392019496379,-73.9943767070686,"Hudson Yards-Chelsea-Flatiron-Union Square","art_gallery"
"8","Pace MacGill Gallery",40.7619496511389,-73.9720217491146,"Midtown-Midtown South","art_gallery"
"9","Pace Prints & Primitive Gallery",40.7618364685385,-73.9721146185583,"Midtown-Midtown South","art_gallery"
"10","Pace Wildenstein",40.7494482797747,-74.0049511763098,"Hudson Yards-Chelsea-Flatiron-Union Square","art_gallery"
"11","Pace Wildenstein",40.7618860745011,-73.9720769175846,"Midtown-Midtown South","art_gallery"
"12","Paige's Art Gallery",40.8150006996011,-73.9592739271831,"Morningside Heights","art_gallery"
"13","PaineWebber Gallery",40.7611889425788,-73.9805838664279,"Midtown-Midtown South","art_gallery"
"14","Paint Can Studios",40.7551578712931,-73.9279400827548,"Queensbridge-Ravenswood-Long Island City","art_gallery"
"15","Paley Barbara K",40.7663700193727,-73.9814800712577,"Midtown-Midtown South","art_gallery"
"16","Pall William Inc",40.7645087386809,-73.9648123383631,"Upper East Side-Carnegie Hill","art_gallery"
"17","Palmer Meredith Gallery",40.7856334156452,-73.9548224896747,"Upper East Side-Carnegie Hill","art_gallery"
"18","Pandora Old Masters",40.7678923522535,-73.9608164118453,"Lenox Hill-Roosevelt Island","art_gallery"
"19","Pardo Sheenan Galleries Ltd",40.744896101496,-73.9815610159903,"Murray Hill-Kips Bay","art_gallery"
"20","Parker's Box",40.7143091582693,-73.9604447082016,"North Side-South Side","art_gallery"
"21","Parsons Galleries",40.735394953113,-73.9947818620198,"West Village","art_gallery"
"22","Patricia Laligant Photographs",40.7467602072187,-73.9928205471008,"Midtown-Midtown South","art_gallery"
"23","Patrick's Gallery",40.7418687771102,-73.9985101718203,"Hudson Yards-Chelsea-Flatiron-Union Square","art_gallery"
"24","Paul Kasmin Gallery",40.7501927500783,-74.0027228570603,"Hudson Yards-Chelsea-Flatiron-Union Square","art_gallery"
"25","Paula Cooper Gallery",40.7469199013253,-74.0068977266516,"Hudson Yards-Chelsea-Flatiron-Union Square","art_gallery"
"26","Peck Ian Fine Paintings Ltd",40.7747605322347,-73.9636501275563,"Upper East Side-Carnegie Hill","art_gallery"
"27","Peder Bonnier Inc",40.7440599458188,-73.9962391423219,"Hudson Yards-Chelsea-Flatiron-Union Square","art_gallery"
"28","Perimeter Gallery",40.749381253195,-74.0038993940284,"Hudson Yards-Chelsea-Flatiron-Union Square","art_gallery"
"29","Perlow Rich Katharina Gallery Inc",40.7623654098302,-73.9716399648983,"Midtown-Midtown South","art_gallery"
"30","Peter L Villa Fine Art",40.7611697005611,-73.970294372154,"Turtle Bay-East Midtown","art_gallery"
"31","Peter Rose Gallery",40.7605755468042,-73.9669049467526,"Turtle Bay-East Midtown","art_gallery"
"32","Peters Gerald Gallery",40.7756635603692,-73.9631693708262,"Upper East Side-Carnegie Hill","art_gallery"
"33","Phoenix Design Ltd",40.7636685481064,-73.7705906231515,"Bayside-Bayside Hills","art_gallery"
"34","Phoenix Gallery",40.7497752518122,-74.005991665312,"Hudson Yards-Chelsea-Flatiron-Union Square","art_gallery"
"35","Phoneup",40.7165167186181,-73.9950260483218,"Chinatown","art_gallery"
"36","Photo & Art Gallery",40.6029621006996,-73.753394465798,"Far Rockaway-Bayswater","art_gallery"
"37","Photo Collection Gagliardi",40.7406376655353,-73.9926964670857,"Hudson Yards-Chelsea-Flatiron-Union Square","art_gallery"
"38","Photo District Gallery",40.740804852807,-73.993105744422,"Hudson Yards-Chelsea-Flatiron-Union Square","art_gallery"
"39","Phyllis Lucas Gallery Inc",40.7561450844752,-73.9679508587099,"Turtle Bay-East Midtown","art_gallery"
"40","Picture This Corporate Art",40.6832419364159,-73.9926035016163,"Carroll Gardens-Columbia Street-Red Hook","art_gallery"
"41","Pierogi 2000",40.7187503459701,-73.9557816000442,"North Side-South Side","art_gallery"
"42","Place Des Vosges",40.7327612174557,-73.9909440797735,"West Village","art_gallery"
"43","Plane Space",40.7343996341078,-74.005183628494,"West Village","art_gallery"
"44","Plaster Palace",40.6257595727406,-73.9831503538383,"Borough Park","art_gallery"
"45","Plaza Holding Inc",40.7621588205941,-73.9757536168505,"Midtown-Midtown South","art_gallery"
"46","Plaza Holding Inc",40.7622603630753,-73.9756800571215,"Midtown-Midtown South","art_gallery"
"47","Plaza Watch & Jewelry Exchange",40.7652614379812,-73.9786741398065,"Midtown-Midtown South","art_gallery"
"48","Pleiades Gallery",40.7493749339701,-74.004770690104,"Hudson Yards-Chelsea-Flatiron-Union Square","art_gallery"
"49","Plum Blossom Gallery",40.7501763280434,-74.0053735768785,"Hudson Yards-Chelsea-Flatiron-Union Square","art_gallery"
"50","Polizzi Fine Art",40.6288762234122,-74.0286020247809,"Bay Ridge","art_gallery"
"51","Poller Leah",40.7241767114766,-73.9997397553385,"SoHo-TriBeCa-Civic Center-Little Italy","art_gallery"
"52","Portara Gallery",40.7565397832456,-73.7675326390089,"Bayside-Bayside Hills","art_gallery"
"53","Portico Fine Art",40.7242593215178,-74.0008266559124,"SoHo-TriBeCa-Civic Center-Little Italy","art_gallery"
"54","Portrait Gallery",40.6099357412562,-73.9222813541576,"Georgetown-Marine Park-Bergen Beach-Mill Basin","art_gallery"
"55","Postmasters Gallery",40.7452024342639,-74.0053466039284,"Hudson Yards-Chelsea-Flatiron-Union Square","art_gallery"
"56","Praxis International Art",40.7727768429572,-73.9651354214459,"Upper East Side-Carnegie Hill","art_gallery"
"57","Prieto International Attorney In Fact Johnpoll",40.7102498442364,-74.0072356526013,"Battery Park City-Lower Manhattan","art_gallery"
"58","Prince Street Gallery",40.7493378974734,-74.0046948001091,"Hudson Yards-Chelsea-Flatiron-Union Square","art_gallery"
"59","Professional Fine Arts Svces Inc",40.7419172341745,-73.9957316955483,"Hudson Yards-Chelsea-Flatiron-Union Square","art_gallery"
"60","Proposition the",40.7482053974821,-74.0071484202491,"Hudson Yards-Chelsea-Flatiron-Union Square","art_gallery"
"61","Public Art Fund",40.7603754840739,-73.9751875385625,"Midtown-Midtown South","art_gallery"
"62","Puerto Rican Work Shop Inc",40.7926998453047,-73.9467275934471,"East Harlem South","art_gallery"
"63","Pushman Gallery Inc",40.7649990889911,-73.979913078835,"Midtown-Midtown South","art_gallery"
"64","Pytlak Art Studio",40.7142761277408,-73.9498852725055,"East Williamsburg","art_gallery"
"65","Queen Art Publishers Inc",40.7254919506518,-74.0097954928963,"SoHo-TriBeCa-Civic Center-Little Italy","art_gallery"
"66","Questroyal Fine Art",40.7757238017286,-73.9600177393769,"Upper East Side-Carnegie Hill","art_gallery"
"67","Rabenou Yris Ancient Arts",40.7622239776894,-73.9638362035824,"Lenox Hill-Roosevelt Island","art_gallery"
"68","Radio House Gallery",40.7517826719664,-74.0069852274978,"Hudson Yards-Chelsea-Flatiron-Union Square","art_gallery"
"69","Rafael Gallery",40.7610689139884,-73.9648484731172,"Lenox Hill-Roosevelt Island","art_gallery"
"70","Rainbow Fine Art Inc",40.7786648099806,-73.9610847802607,"Upper East Side-Carnegie Hill","art_gallery"
"71","Ralph Chait Galleries Inc",40.762697988061,-73.9747246742491,"Midtown-Midtown South","art_gallery"
"72","Randel Gallery Inc",40.775570441215,-73.9619418228809,"Upper East Side-Carnegie Hill","art_gallery"
"73","Randolph & Tate Assocs",40.7443568432283,-73.9880468037393,"Hudson Yards-Chelsea-Flatiron-Union Square","art_gallery"
"74","Raphael Fodde Editions",40.702087400236,-73.9899773559911,"DUMBO-Vinegar Hill-Downtown Brooklyn-Boerum Hill","art_gallery"
"75","Rare art Gallery",40.7502157256797,-74.0036899941744,"Hudson Yards-Chelsea-Flatiron-Union Square","art_gallery"
"76","Raydon Gallery",40.7783372053906,-73.9603266763224,"Upper East Side-Carnegie Hill","art_gallery"
"77","Red Dot",40.7427445750651,-73.9950592046059,"Hudson Yards-Chelsea-Flatiron-Union Square","art_gallery"
"78","Reece Galleries Inc The",40.7633560679256,-73.9757099560625,"Midtown-Midtown South","art_gallery"
"79","Reeves Contemporary Inc",40.7492825789301,-74.0051882085793,"Hudson Yards-Chelsea-Flatiron-Union Square","art_gallery"
"80","Regina's Art Center",40.6033799842608,-74.0017285919021,"Bensonhurst West","art_gallery"
"81","Rehs Galleries Inc",40.7629740044914,-73.973110440921,"Midtown-Midtown South","art_gallery"
"82","Reinhold Brown Gallery",40.7786402449988,-73.9606889427255,"Upper East Side-Carnegie Hill","art_gallery"
"83","Renaissance Gallery",40.8241235836158,-73.9413474749535,"Central Harlem North-Polo Grounds","art_gallery"
"84","Resnick Ira Inc",40.7618945297268,-73.968810610878,"Turtle Bay-East Midtown","art_gallery"
"85","Ricco Maresca Gallery",40.7466122472733,-74.0068465345964,"Hudson Yards-Chelsea-Flatiron-Union Square","art_gallery"
"86","Richard Gray Gallery",40.7760351165948,-73.9626874430095,"Upper East Side-Carnegie Hill","art_gallery"
"87","Richard Solomon",40.7549020326761,-73.9679682237544,"Turtle Bay-East Midtown","art_gallery"
"88","Richard York Gallery",40.7676418525771,-73.9688424202626,"Upper East Side-Carnegie Hill","art_gallery"
"89","Rienzo Gallery",40.7698308006959,-73.9671517745906,"Upper East Side-Carnegie Hill","art_gallery"
"90","Ritter-Antik Inc",40.7325042724104,-73.9927019421985,"West Village","art_gallery"
"91","Rivington Bar & Art Gallery",40.7190874796438,-73.9844386574906,"Lower East Side","art_gallery"
"92","Robert Lee Morris Inc",40.7244070881324,-74.0023665060814,"SoHo-TriBeCa-Civic Center-Little Italy","art_gallery"
"93","Robert Mann Gallery",40.7497433843586,-74.0059112442734,"Hudson Yards-Chelsea-Flatiron-Union Square","art_gallery"
"94","Robert Miller Gallery Inc",40.7499808550149,-74.0042339860186,"Hudson Yards-Chelsea-Flatiron-Union Square","art_gallery"
"95","Robert Steele Gallery",40.7494234578674,-74.0039854778094,"Hudson Yards-Chelsea-Flatiron-Union Square","art_gallery"
"96","Robertson African Arts",40.7415083515344,-73.9921237712551,"Hudson Yards-Chelsea-Flatiron-Union Square","art_gallery"
"97","Rogallerycom",40.769707495774,-73.9572680882977,"Lenox Hill-Roosevelt Island","art_gallery"
"98","Ronald Feldman Fine Arts",40.7211603892599,-74.001855913281,"SoHo-TriBeCa-Civic Center-Little Italy","art_gallery"
"99","Roosevelt Island Visual Arts Assoc",40.7535986702466,-73.9564350970602,"Lenox Hill-Roosevelt Island","art_gallery"
"100","Rosen Andrea Gallery Inc",40.7490437226032,-74.0049376227748,"Hudson Yards-Chelsea-Flatiron-Union Square","art_gallery"
"101","Rosenberg & Kaufman Fine Art",40.7250249703041,-74.0007094072057,"SoHo-TriBeCa-Civic Center-Little Italy","art_gallery"
"102","Rosenberg Paul & Co",40.7762379567871,-73.9625159893728,"Upper East Side-Carnegie Hill","art_gallery"
"103","Ross Luise Gallery",40.7494579153608,-74.0039175210932,"Hudson Yards-Chelsea-Flatiron-Union Square","art_gallery"
"104","Roth",40.7688396321836,-73.9625371631743,"Upper East Side-Carnegie Hill","art_gallery"
"105","Rotunda Gallery",40.6951573384121,-73.99146799383,"Brooklyn Heights-Cobble Hill","art_gallery"
"106","Royal Fine Art",40.7755088858474,-73.9586874136752,"Upper East Side-Carnegie Hill","art_gallery"
"107","Royal-Athena Galleries",40.7607861107008,-73.9680493665915,"Turtle Bay-East Midtown","art_gallery"
"108","Rudolph De Paola Art Gallery",40.6179934963939,-74.0217240685232,"Dyker Heights","art_gallery"
"109","Ruesch Jeffrey Fine Arts",40.7238247517576,-74.0010713088668,"SoHo-TriBeCa-Civic Center-Little Italy","art_gallery"
"110","Russeck Gallery",40.7267931556443,-74.0005653221181,"SoHo-TriBeCa-Civic Center-Little Italy","art_gallery"
"111","Russian World",40.7619257405724,-73.9760474916457,"Midtown-Midtown South","art_gallery"
"112","S & A Art Gallery Inc",40.7784464334569,-73.9565893452766,"Upper East Side-Carnegie Hill","art_gallery"
"113","S 2 Editions Ltd",40.7252948111674,-74.0047922620151,"SoHo-TriBeCa-Civic Center-Little Italy","art_gallery"
"114","S E Art & Design Inc",40.7607454520631,-73.9652380083693,"Turtle Bay-East Midtown","art_gallery"
"115","Sabarsky Serge Gallery",40.7758927288876,-73.96160396766,"Upper East Side-Carnegie Hill","art_gallery"
"116","Sabbatique Ltd",40.73684451842,-73.9739800370345,"Murray Hill-Kips Bay","art_gallery"
"117","Sabrina Enterprise.Com Artworks Sales and Rprdctns",40.7590586380479,-73.8679072521302,"East Elmhurst","art_gallery"
"118","Sacks Fine Art",40.7618278888262,-73.9647538069905,"Lenox Hill-Roosevelt Island","art_gallery"
"119","Safani Gallery Inc",40.7748329352702,-73.9636984092412,"Upper East Side-Carnegie Hill","art_gallery"
"120","Salz Trager Janet",40.7695404109598,-73.9655096627496,"Upper East Side-Carnegie Hill","art_gallery"
"121","Sam's Souk",40.7694560078979,-73.9625315065541,"Upper East Side-Carnegie Hill","art_gallery"
"122","Sanada Ikkanart Intl",40.7800765178736,-73.9597778376811,"Upper East Side-Carnegie Hill","art_gallery"
"123","Sands & Company Inc Fine Art At Madison Av",40.7741378046584,-73.9634219400346,"Upper East Side-Carnegie Hill","art_gallery"
"124","Sara Meltzer On View",40.7247008605828,-73.9970936254682,"SoHo-TriBeCa-Civic Center-Little Italy","art_gallery"
"125","Sarafina Inc",40.6932947859122,-73.9693726839187,"Fort Greene","art_gallery"
"126","Sarajo Inc",40.7252710690866,-73.9988017742946,"SoHo-TriBeCa-Civic Center-Little Italy","art_gallery"
"127","Sarina Tang Fine Art",40.7484107554171,-74.0052547757785,"Hudson Yards-Chelsea-Flatiron-Union Square","art_gallery"
"128","Savacou Galleries",40.7317821752359,-73.9862683601588,"East Village","art_gallery"
"129","Sayn-Wittgenstein",40.77036690857,-73.9614102737951,"Upper East Side-Carnegie Hill","art_gallery"
"130","Schellmann Editions",40.7498269416001,-74.0058546184674,"Hudson Yards-Chelsea-Flatiron-Union Square","art_gallery"
"131","Schickler Howard Fine Art",40.7028747156636,-73.9899230191079,"DUMBO-Vinegar Hill-Downtown Brooklyn-Boerum Hill","art_gallery"
"132","Schillay Fine Art",40.7661392603569,-73.9526753751244,"Lenox Hill-Roosevelt Island","art_gallery"
"133","Schiller & Bodo Fine Art",40.766120665031,-73.966287426937,"Upper East Side-Carnegie Hill","art_gallery"
"134","Schlesinger Gallery",40.7724589170594,-73.9654743715182,"Upper East Side-Carnegie Hill","art_gallery"
"135","Scholten Japanese Art",40.7677175399878,-73.967071560949,"Upper East Side-Carnegie Hill","art_gallery"
"136","Schonfeld R D & Co Inc",40.753635380577,-73.9669851798845,"Turtle Bay-East Midtown","art_gallery"
"137","Sculpture Center",40.746921327465,-73.940814266248,"Hunters Point-Sunnyside-West Maspeth","art_gallery"
"138","Sean Kelly Inc",40.7518838201968,-74.0030687916797,"Hudson Yards-Chelsea-Flatiron-Union Square","art_gallery"
"139","Sears-Peyton Gallery",40.7499173903281,-74.0057991263059,"Hudson Yards-Chelsea-Flatiron-Union Square","art_gallery"
"140","Seaside Summer Concert Series Inc",40.6596826818526,-73.9608900398164,"Prospect Lefferts Gardens-Wingate","art_gallery"
"141","Second Ave Art Expo",40.7558314157737,-73.9674108849761,"Turtle Bay-East Midtown","art_gallery"
"142","Seibold Eleanor",40.7750669644955,-73.948079672109,"Yorkville","art_gallery"
"143","Senior & Shopmaker",40.7432733048699,-73.986817346501,"Hudson Yards-Chelsea-Flatiron-Union Square","art_gallery"
"144","Sepia International Inc the",40.7442501296844,-73.9945026993127,"Hudson Yards-Chelsea-Flatiron-Union Square","art_gallery"
"145","Serbin Inna",40.7711118655922,-73.9544056661336,"Lenox Hill-Roosevelt Island","art_gallery"
"146","Serger Helen La Boetie",40.7787555462377,-73.961225921653,"Upper East Side-Carnegie Hill","art_gallery"
"147","Seven Colors",40.755678044061,-73.978823437247,"Midtown-Midtown South","art_gallery"
"148","Shades of Art",40.6875330546608,-73.9794938374129,"Fort Greene","art_gallery"
"149","Shainman Jack Gallery",40.7463655471036,-74.006263402563,"Hudson Yards-Chelsea-Flatiron-Union Square","art_gallery"
"150","Shapolsky Anita Gallery",40.7653957451292,-73.9645597664384,"Upper East Side-Carnegie Hill","art_gallery"
"151","Shawn Dulaney Studio",40.7414718691169,-73.992055668654,"Hudson Yards-Chelsea-Flatiron-Union Square","art_gallery"
"152","Shepherd & Derom Galleries",40.775793987093,-73.9616665328325,"Upper East Side-Carnegie Hill","art_gallery"
"153","Shickman H Gallery",40.7690176833488,-73.9597263131788,"Lenox Hill-Roosevelt Island","art_gallery"
"154","Shulman B & M Inc",40.6002735238444,-73.9450654828952,"Madison","art_gallery"
"155","Sigrid Freundorfer Fine Art",40.7684832265768,-73.9680959258706,"Upper East Side-Carnegie Hill","art_gallery"
"156","Silverstein Gallery Inc",40.7465866957298,-74.0061039183921,"Hudson Yards-Chelsea-Flatiron-Union Square","art_gallery"
"157","Simply Marvelous Art",40.7041222055541,-73.7997565532996,"Jamaica","art_gallery"
"158","Skoto Gallery",40.7466765819282,-74.0068503005534,"Hudson Yards-Chelsea-Flatiron-Union Square","art_gallery"
"159","Sloan McGill Collection",40.6596151344134,-73.9556508413294,"Prospect Lefferts Gardens-Wingate","art_gallery"
"160","Smack Mellon Studios",40.703750736899,-73.9898597242043,"DUMBO-Vinegar Hill-Downtown Brooklyn-Boerum Hill","art_gallery"
"161","Smith Gallery",40.7481460102517,-74.0026577548331,"Hudson Yards-Chelsea-Flatiron-Union Square","art_gallery"
"162","Society For Renewal of Christian Art",40.765647029599,-73.9621907349436,"Lenox Hill-Roosevelt Island","art_gallery"
"163","Soho 20",40.7494811755881,-74.0038325730713,"Hudson Yards-Chelsea-Flatiron-Union Square","art_gallery"
"164","Soho Photo Gallery",40.7189641862977,-74.0055563326551,"SoHo-TriBeCa-Civic Center-Little Italy","art_gallery"
"165","Soldwedel Kipp",40.7622419224371,-73.9707420037079,"Midtown-Midtown South","art_gallery"
"166","Soloman & Co Fine Art Gallerie",40.7738348522091,-73.9635246108217,"Upper East Side-Carnegie Hill","art_gallery"
"167","Sonnabend Gallery Inc",40.7475328738561,-74.0064043326886,"Hudson Yards-Chelsea-Flatiron-Union Square","art_gallery"
"168","Soufer Gallery",40.77578491129,-73.9621909336469,"Upper East Side-Carnegie Hill","art_gallery"
"169","Spencer Brownstone Gallery",40.7225929057013,-74.0028519546277,"SoHo-TriBeCa-Civic Center-Little Italy","art_gallery"
"170","Sperone Westwater",40.7254434096826,-73.9992623958084,"SoHo-TriBeCa-Civic Center-Little Italy","art_gallery"
"171","Spring",40.7022482768776,-73.9873958088039,"DUMBO-Vinegar Hill-Downtown Brooklyn-Boerum Hill","art_gallery"
"172","Sragow Ellen Ltd",40.7465217647798,-73.9930249042897,"Midtown-Midtown South","art_gallery"
"173","St Etienne Galerie",40.763318150279,-73.9756284019103,"Midtown-Midtown South","art_gallery"
"174","Staley-Wise Gallery",40.7238832500602,-73.9976700930255,"SoHo-TriBeCa-Civic Center-Little Italy","art_gallery"
"175","Start",40.7219883380336,-74.0015810305511,"SoHo-TriBeCa-Civic Center-Little Italy","art_gallery"
"176","State of Art",40.7302212177764,-73.9579151735959,"Greenpoint","art_gallery"
"177","Steigrad Lawrence Fine Arts",40.7698201286151,-73.9662259570545,"Upper East Side-Carnegie Hill","art_gallery"
"178","Stein Gertrude Gallery",40.7654448893568,-73.9804975387013,"Midtown-Midtown South","art_gallery"
"179","Stephen Downes Gallery",40.7201248721659,-73.9964729705815,"SoHo-TriBeCa-Civic Center-Little Italy","art_gallery"
"180","Stewart Waltzer Co",40.7287135272124,-74.003940897054,"West Village","art_gallery"
"181","Storefront For Art and Architecture",40.7214774282046,-73.9970682973752,"SoHo-TriBeCa-Civic Center-Little Italy","art_gallery"
"182","Stricoff Fine Art, Ltd.",40.74989327559,-74.0057107770999,"Hudson Yards-Chelsea-Flatiron-Union Square","art_gallery"
"183","Studio Gallery",40.7893348290602,-73.9742854802396,"Upper West Side","art_gallery"
"184","Studio Tamar",40.7382155209381,-73.9842976585536,"Gramercy","art_gallery"
"185","Stux Gallery",40.7493223878406,-74.0048091965919,"Hudson Yards-Chelsea-Flatiron-Union Square","art_gallery"
"186","Sugarhill Arts Center",40.8302204019001,-73.9470926657524,"Hamilton Heights","art_gallery"
"187","Suite 106",40.7235961214183,-73.9989243107074,"SoHo-TriBeCa-Civic Center-Little Italy","art_gallery"
"188","Sun Yi Jun",40.7167628152919,-73.9953458096245,"Chinatown","art_gallery"
"189","Susan Aberbach Fine Art",40.7622890479556,-73.9716838884381,"Midtown-Midtown South","art_gallery"
"190","Susan Megson Gallery",40.7262492044454,-74.0008132091015,"SoHo-TriBeCa-Civic Center-Little Italy","art_gallery"
"191","Susan Rolfe Associates Fine Arts Ltd",40.7644843016308,-73.9711103443112,"Upper East Side-Carnegie Hill","art_gallery"
"192","Susan Sheehan Gallery",40.7479117069286,-74.00605481573,"Hudson Yards-Chelsea-Flatiron-Union Square","art_gallery"
"193","Sutherland M",40.7669602464711,-73.9672277902357,"Upper East Side-Carnegie Hill","art_gallery"
"194","Swiss Institute",40.722247484878,-74.0000628936219,"SoHo-TriBeCa-Civic Center-Little Italy","art_gallery"
"195","Taglialatella Dominic J",40.7495251020499,-74.0039458415261,"Hudson Yards-Chelsea-Flatiron-Union Square","art_gallery"
"196","Takako Tsuji Gallery",40.7622120464893,-73.9717379416551,"Midtown-Midtown South","art_gallery"
"197","Talwar Gallery",40.7354581457437,-73.988827488258,"Gramercy","art_gallery"
"198","Tambaran Gallery",40.7787966870526,-73.9613989856489,"Upper East Side-Carnegie Hill","art_gallery"
"199","Tang Sarina",40.7749908076161,-73.9644341367993,"Upper East Side-Carnegie Hill","art_gallery"
"200","Tanya Bonakdar Galery",40.7471718785601,-74.0061962785368,"Hudson Yards-Chelsea-Flatiron-Union Square","art_gallery"
"201","Tate",40.7416087692859,-74.0061882619847,"Hudson Yards-Chelsea-Flatiron-Union Square","art_gallery"
"202","Tatistcheff Gallery Inc",40.7465936546289,-74.0069499234362,"Hudson Yards-Chelsea-Flatiron-Union Square","art_gallery"
"203","Team Gallery",40.7502195419405,-74.0039372955022,"Hudson Yards-Chelsea-Flatiron-Union Square","art_gallery"
"204","Teller Susan Gallery",40.724290658599,-73.9974643631155,"SoHo-TriBeCa-Civic Center-Little Italy","art_gallery"
"205","Tenri Cultural Institute",40.7364026687652,-73.9960936207605,"West Village","art_gallery"
"206","Thaw E V & Co",40.7704262261533,-73.9648714768632,"Upper East Side-Carnegie Hill","art_gallery"
"207","The Affordable Art Fair Llc",40.7412814524862,-73.9990701873441,"Hudson Yards-Chelsea-Flatiron-Union Square","art_gallery"
"208","The Axa Gallery",40.7616941845477,-73.9817828026849,"Midtown-Midtown South","art_gallery"
"209","The Bohen Foundation",40.7408079616128,-74.0065028070375,"West Village","art_gallery"
"210","The Chinese Art Gallery",40.7579552203608,-73.965656949278,"Turtle Bay-East Midtown","art_gallery"
"211","The Dollhaus Art Gallery",40.7109018357029,-73.9672872636691,"North Side-South Side","art_gallery"
"212","The Gallery 172",40.8315803968534,-73.8749193983119,"West Farms-Bronx River","art_gallery"
"213","The Old Print Shop Inc",40.7437412617387,-73.9821076788238,"Murray Hill-Kips Bay","art_gallery"
"214","The Phatory Llc",40.7257216580395,-73.9794746933036,"Lower East Side","art_gallery"
"215","The Q Department",40.7196631135947,-74.0003676771512,"SoHo-TriBeCa-Civic Center-Little Italy","art_gallery"
"216","The Scene Gallery",40.7210620615601,-73.9909751716382,"Chinatown","art_gallery"
"217","Thicket",40.7185812244115,-74.0082490457587,"SoHo-TriBeCa-Civic Center-Little Italy","art_gallery"
"218","Think Art Gallery",40.7546672150301,-73.9940318887655,"Hudson Yards-Chelsea-Flatiron-Union Square","art_gallery"
"219","Thomas & Hirsch",40.7234312421358,-74.0022847048919,"SoHo-TriBeCa-Civic Center-Little Italy","art_gallery"
"220","Thomas Erben Gallery",40.7498964375615,-74.0042940111244,"Hudson Yards-Chelsea-Flatiron-Union Square","art_gallery"
"221","Thomson C Art",40.7740067348675,-73.9643098968175,"Upper East Side-Carnegie Hill","art_gallery"
"222","Three East Third St Corp",40.7263171691941,-73.9912703608634,"East Village","art_gallery"
"223","Throckmorton Fine Arts",40.7609489306426,-73.968446896942,"Turtle Bay-East Midtown","art_gallery"
"224","Tilton Jack Gallery",40.72225087144,-74.0020005798315,"SoHo-TriBeCa-Civic Center-Little Italy","art_gallery"
"225","Time Is Always Now",40.7230360076951,-74.0016524552633,"SoHo-TriBeCa-Civic Center-Little Italy","art_gallery"
"226","Tk Oriental Antiques",40.7623455604763,-73.97182904482,"Midtown-Midtown South","art_gallery"
"227","Tobey Fine Art",40.7244353476061,-73.9970366845134,"SoHo-TriBeCa-Civic Center-Little Italy","art_gallery"
"228","Ton Ying & Co",40.7580811255043,-73.9657178767189,"Turtle Bay-East Midtown","art_gallery"
"229","Tonal Motion Inc",40.7524545710782,-73.985461387083,"Midtown-Midtown South","art_gallery"
"230","Tonkonow Leslie",40.7479582165763,-74.006151093021,"Hudson Yards-Chelsea-Flatiron-Union Square","art_gallery"
"231","Tower Art Gallery",40.7098382787242,-74.0095084934269,"Battery Park City-Lower Manhattan","art_gallery"
"232","Traditional Art Gallery Inc",40.7580347866605,-73.9658551347549,"Turtle Bay-East Midtown","art_gallery"
"233","Triangle Editions",40.7647107514411,-73.9677731620756,"Upper East Side-Carnegie Hill","art_gallery"
"234","Tribes Gallery",40.7215555077951,-73.9798840814897,"Lower East Side","art_gallery"
"235","Triple Candie",40.8137465789013,-73.9550632174421,"Manhattanville","art_gallery"
"236","Triton Collection the",40.75257911944,-74.0070489437203,"Hudson Yards-Chelsea-Flatiron-Union Square","art_gallery"
"237","Troubetzkoy Paintings",40.7242299219496,-73.9777795949515,"Lower East Side","art_gallery"
"238","Tunick David",40.7683307834722,-73.9684902260497,"Upper East Side-Carnegie Hill","art_gallery"
"239","Turkana Gallery",40.7097677805557,-74.0124525498898,"Battery Park City-Lower Manhattan","art_gallery"
"240","Ubu Gallery",40.7590477770315,-73.9612438956218,"Turtle Bay-East Midtown","art_gallery"
"241","Under Minerva",40.6624244488678,-73.9926405946356,"Park Slope-Gowanus","art_gallery"
"242","Up & Co",40.7180359585157,-74.0052533360809,"SoHo-TriBeCa-Civic Center-Little Italy","art_gallery"
"243","Uptown Gallery the",40.7819508257015,-73.9583418115296,"Upper East Side-Carnegie Hill","art_gallery"
"244","Urban Architecture Gallery of Applied Arts Inc",40.7387200011721,-73.9556829035359,"Greenpoint","art_gallery"
"245","Ursus Books & Prints, Ltd.",40.7745505704717,-73.9631494760568,"Upper East Side-Carnegie Hill","art_gallery"
"246","Valenzi Gallery & Framing",40.7697579741322,-73.9260913705324,"Old Astoria","art_gallery"
"247","Van De Weghe Fine Art",40.7482950550761,-74.004858315991,"Hudson Yards-Chelsea-Flatiron-Union Square","art_gallery"
"248","Vance Jordan Fine Art",40.7740762256816,-73.9641240205503,"Upper East Side-Carnegie Hill","art_gallery"
"249","Veranda Design",40.7862711291395,-73.9771925909779,"Upper West Side","art_gallery"
"250","Verona Arts Ltd",40.7574936989894,-73.9775522435697,"Midtown-Midtown South","art_gallery"
"251","Viart Corporation",40.7604300363174,-73.9706469952535,"Turtle Bay-East Midtown","art_gallery"
"252","Vick Corporate Art Advisors",40.7498045501324,-74.0057730650683,"Hudson Yards-Chelsea-Flatiron-Union Square","art_gallery"
"253","Vieille Russie Inc Antiqs & Jwlry",40.7643101221728,-73.9725300178406,"Upper East Side-Carnegie Hill","art_gallery"
"254","Vietnam Art Design",40.718403862409,-74.0101256965807,"SoHo-TriBeCa-Civic Center-Little Italy","art_gallery"
"255","Viewpoint Gallery",40.7371179857815,-73.9906894479809,"Hudson Yards-Chelsea-Flatiron-Union Square","art_gallery"
"256","Vincent Fremont Enterprises",40.7355008665219,-73.9918777119715,"Hudson Yards-Chelsea-Flatiron-Union Square","art_gallery"
"257","Viridian Artists Inc",40.7492913813902,-74.0047276435506,"Hudson Yards-Chelsea-Flatiron-Union Square","art_gallery"
"258","Visage Studios",40.7505510260199,-73.9842484106046,"Midtown-Midtown South","art_gallery"
"259","Visual Arts Gallery",40.7259205988931,-74.0001443139446,"SoHo-TriBeCa-Civic Center-Little Italy","art_gallery"
"260","Volpe Organization",40.7748258944764,-73.9880961672529,"Lincoln Square","art_gallery"
"261","Wada Takashi Gallery",40.7629065453098,-73.9884996068585,"Clinton","art_gallery"
"262","Wade Maxx Art Gallery",40.7752092049333,-73.9801375540622,"Lincoln Square","art_gallery"
"263","Wally Findlay Galleries",40.760889728799,-73.9697873235418,"Turtle Bay-East Midtown","art_gallery"
"264","Ward-Nasse Gallery",40.7261243493603,-74.0020694892648,"SoHo-TriBeCa-Civic Center-Little Italy","art_gallery"
"265","Washburn Galleries",40.7632917342136,-73.9754893971575,"Midtown-Midtown South","art_gallery"
"266","Washington Sq Outdoor Art Exhibit Inc",40.7305535140669,-73.9895595743499,"East Village","art_gallery"
"267","Webster David",40.7425549402239,-74.0060499351883,"Hudson Yards-Chelsea-Flatiron-Union Square","art_gallery"
"268","Weisbrod Chinese Art Ltd",40.7618360645725,-73.9719565813189,"Midtown-Midtown South","art_gallery"
"269","Wellesley the",40.769378868365,-73.9604313705021,"Lenox Hill-Roosevelt Island","art_gallery"
"270","Wessel & O'Connor",40.7465836242076,-73.9960427208578,"Hudson Yards-Chelsea-Flatiron-Union Square","art_gallery"
"271","Westbeth Gallery",40.7368160907326,-74.0089220736961,"West Village","art_gallery"
"272","Western Art Collectors Society",40.5952497973711,-74.097405108966,"Old Town-Dongan Hills-South Beach","art_gallery"
"273","Westwood Gallery",40.7244229623057,-73.9973443382967,"SoHo-TriBeCa-Civic Center-Little Italy","art_gallery"
"274","Weybridge Fine Art",40.7773749321759,-73.9609780584284,"Upper East Side-Carnegie Hill","art_gallery"
"275","Whas Cultural Art Center Inc",40.8562473274353,-73.9324980264628,"Washington Heights North","art_gallery"
"276","White Box",40.7503229067573,-74.0039826080514,"Hudson Yards-Chelsea-Flatiron-Union Square","art_gallery"
"277","White Columns Inc",40.7390733900545,-74.0041229867462,"West Village","art_gallery"
"278","Whitfield James Fine Art",40.7341517204105,-73.9922334483904,"West Village","art_gallery"
"279","Wickiser Walter Gallery Inc",40.7497089331249,-74.0058342202677,"Hudson Yards-Chelsea-Flatiron-Union Square","art_gallery"
"280","Willow Woodstock Artistic Enterprises",40.7273179875329,-73.9850377376875,"East Village","art_gallery"
"281","Wilmer Jenning Gallery",40.7215881123005,-73.9829756398302,"Lower East Side","art_gallery"
"282","Winston Wachter Mayer Fine Art",40.7494705508339,-74.0046993398069,"Hudson Yards-Chelsea-Flatiron-Union Square","art_gallery"
"283","Winter Works On Paper",40.7188438574048,-73.9559689865204,"North Side-South Side","art_gallery"
"284","Wolf Daniel Inc",40.7751549747493,-73.9620873906747,"Upper East Side-Carnegie Hill","art_gallery"
"285","Woodward Gallery",40.7190134351541,-73.9918171940788,"Chinatown","art_gallery"
"286","WORLD AFRICA",40.8351450390361,-73.9475365062362,"Washington Heights South","art_gallery"
"287","World Art Center",40.7105994866355,-74.0071758185484,"Battery Park City-Lower Manhattan","art_gallery"
"288","Yancey Richardson Gallery",40.747990092758,-74.0060650165055,"Hudson Yards-Chelsea-Flatiron-Union Square","art_gallery"
"289","Yasuda Fine Arts Inc",40.7615475931641,-73.977603503314,"Midtown-Midtown South","art_gallery"
"290","Yorks Shona Gallery",40.7234609507239,-73.9993095204382,"SoHo-TriBeCa-Civic Center-Little Italy","art_gallery"
"291","Yorkville Art Gallery & Framing",40.7841256676139,-73.9497756328839,"Yorkville","art_gallery"
"292","Yoshii Gallery",40.7747291642238,-73.9635364473415,"Upper East Side-Carnegie Hill","art_gallery"
"293","Yung Hee Kim",40.7748019494047,-73.9650304978347,"Upper East Side-Carnegie Hill","art_gallery"
"294","Zabriskie Gallery",40.7641770634935,-73.9760867843261,"Midtown-Midtown South","art_gallery"
"295","Zarre Andre Gallery",40.7466565609707,-74.0069405310459,"Hudson Yards-Chelsea-Flatiron-Union Square","art_gallery"
"296","Zetterquist Galleries",40.7685509098275,-73.9690988645206,"Upper East Side-Carnegie Hill","art_gallery"
"297","Zito Studio Gallery",40.7195963825398,-73.988352217897,"Chinatown","art_gallery"
"298","Zwirner & Wirth",40.7694753540807,-73.9665635808714,"Upper East Side-Carnegie Hill","art_gallery"
"299","Zwirner David Gallery",40.745894958673,-74.0069681817305,"Hudson Yards-Chelsea-Flatiron-Union Square","art_gallery"
"300","Priska C. Juschka Fine Art Inc",40.7512662970876,-74.0043644093556,"Hudson Yards-Chelsea-Flatiron-Union Square","art_gallery"
"301","1 2 3 Watts Gallery",40.7238571663824,-74.0090234859451,"SoHo-TriBeCa-Civic Center-Little Italy","art_gallery"
"302","12 Below",40.7346013927966,-73.9910678312652,"West Village","art_gallery"
"303","14 Sculptors Gallery",40.7252553185832,-73.9975229095534,"SoHo-TriBeCa-Civic Center-Little Italy","art_gallery"
"304","1405 Art Gallery",40.7697472198321,-73.9579834660085,"Lenox Hill-Roosevelt Island","art_gallery"
"305","2 Welancora Gallery",40.6840778987647,-73.94151974328,"Bedford","art_gallery"
"306","280 Modern",40.709243626508,-73.9144824715749,"Ridgewood","art_gallery"
"307","3 Costantino Fioratti Helen C",40.772171014861,-73.9646851409158,"Upper East Side-Carnegie Hill","art_gallery"
"308","303 Gallery",40.7474897276463,-74.0070998822385,"Hudson Yards-Chelsea-Flatiron-Union Square","art_gallery"
"309","33rd St Galleria",40.7499847369762,-73.9908617284717,"Midtown-Midtown South","art_gallery"
"310","33rd Street Galleria",40.7499577288226,-73.9896764403985,"Midtown-Midtown South","art_gallery"
"311","4 Chambers Fine Art",40.7454809830483,-74.0071181898628,"Hudson Yards-Chelsea-Flatiron-Union Square","art_gallery"
"312","5 Robin Rice Gallery",40.8060390950147,-73.9551365050696,"Central Harlem South","art_gallery"
"313","531 Artspace",40.7213218179267,-73.9471343843565,"Greenpoint","art_gallery"
"314","73 St Farmers Market",40.7673047245346,-73.953015464766,"Lenox Hill-Roosevelt Island","art_gallery"
"315","A Clean Well Lighted Place Inc",40.7345361110302,-74.0045556326513,"West Village","art_gallery"
"316","A J ARTS LTD",40.6186096480429,-73.9169132545142,"Georgetown-Marine Park-Bergen Beach-Mill Basin","art_gallery"
"317","A.I.R. Gallery",40.7222057376424,-74.0024772387627,"SoHo-TriBeCa-Civic Center-Little Italy","art_gallery"
"318","AAA-Abbey Mdsng Co Inc",40.6422384885764,-73.9699306449376,"Kensington-Ocean Parkway","art_gallery"
"319","Abada Felix Inc",40.7798281889302,-73.9536990688457,"Upper East Side-Carnegie Hill","art_gallery"
"320","Aberbach Fine Art",40.7623416456396,-73.9715673854096,"Midtown-Midtown South","art_gallery"
"321","Aca Galleries",40.7466637235728,-74.0067130719017,"Hudson Yards-Chelsea-Flatiron-Union Square","art_gallery"
"322","Ace Gallery",40.7251805921101,-74.0080056976331,"SoHo-TriBeCa-Civic Center-Little Italy","art_gallery"
"323","Acquavella Galleries Inc",40.776241997318,-73.9626490275197,"Upper East Side-Carnegie Hill","art_gallery"
"324","Adam Baumgold Fine Art",40.775663751076,-73.9610758031045,"Upper East Side-Carnegie Hill","art_gallery"
"325","Adam Williams Fine Art Ltd",40.7769672404873,-73.9620675381942,"Upper East Side-Carnegie Hill","art_gallery"
"326","Adams Fund Art Buyers",40.7801353855786,-73.9859359709644,"Lincoln Square","art_gallery"
"327","Adams George Gallery",40.7640915320836,-73.9761489285563,"Midtown-Midtown South","art_gallery"
"328","Adelson Galleries",40.7760274733812,-73.9548534751001,"Yorkville","art_gallery"
"329","Adler & Conkright Fine Art Llc",40.7709752446554,-73.9662409151438,"Upper East Side-Carnegie Hill","art_gallery"
"330","African Arts Center Inc",40.7519195789357,-74.0056664911277,"Hudson Yards-Chelsea-Flatiron-Union Square","art_gallery"
"331","Africart Motherland Inc",40.8148487374181,-73.9473959108493,"Central Harlem North-Polo Grounds","art_gallery"
"332","Agora Gallery",40.7494395438972,-74.0046279805083,"Hudson Yards-Chelsea-Flatiron-Union Square","art_gallery"
"333","Akira Ikeda Gallery",40.7315980628455,-74.0019872020291,"West Village","art_gallery"
"334","Alan Brasington Inc",40.7379212841349,-74.0046511151753,"West Village","art_gallery"
"335","Alaska on Madison",40.7772959523408,-73.9610728127104,"Upper East Side-Carnegie Hill","art_gallery"
"336","Alexander and Bonin",40.7446874045555,-74.0059921099554,"Hudson Yards-Chelsea-Flatiron-Union Square","art_gallery"
"337","Alexander's Sculptural Svce",40.7499835264247,-73.9779494173648,"Murray Hill-Kips Bay","art_gallery"
"338","Alexandre Gallery",40.7622684939532,-73.9716180606587,"Midtown-Midtown South","art_gallery"
"339","Alliance of Queens Artists",40.7106697821404,-73.8533462856138,"Forest Hills","art_gallery"
"340","Blum Peter-Blum Arts",40.7245906951219,-74.0010768819832,"SoHo-TriBeCa-Civic Center-Little Italy","art_gallery"
"341","Alter Silver Gallery Corp",40.7582070206495,-73.9657483087514,"Turtle Bay-East Midtown","art_gallery"
"342","American European Fine Art Inc",40.7818851822369,-73.9547327776753,"Upper East Side-Carnegie Hill","art_gallery"
"343","American Fine Arts Co",40.7474932677015,-74.0061075003533,"Hudson Yards-Chelsea-Flatiron-Union Square","art_gallery"
"344","American Folk Art Museum - Eva and Morris Feld Gallery",40.7731453245785,-73.9814223607695,"Lincoln Square","art_gallery"
"345","Ameringer & Yohe Fine Arts",40.7476769008043,-74.005702311687,"Hudson Yards-Chelsea-Flatiron-Union Square","art_gallery"
"346","Amos Eno Gallery",40.702839860367,-73.9890922394521,"DUMBO-Vinegar Hill-Downtown Brooklyn-Boerum Hill","art_gallery"
"347","An American Space",40.7834768790123,-73.9537319541543,"Upper East Side-Carnegie Hill","art_gallery"
"348","Ancient Art of the New World Inc",40.7690097569823,-73.9533429886399,"Lenox Hill-Roosevelt Island","art_gallery"
"349","Andover Gallery",40.7208311711904,-73.9902392274314,"Chinatown","art_gallery"
"350","Andrew Edlin Gallery",40.7446981849188,-74.0058441605078,"Hudson Yards-Chelsea-Flatiron-Union Square","art_gallery"
"351","Andy Warhol Authentication Board Inc",40.7464976437538,-74.0065781938964,"Hudson Yards-Chelsea-Flatiron-Union Square","art_gallery"
"352","Angel Orensanz Foundation",40.7211425940389,-73.9856657852384,"Chinatown","art_gallery"
"353","Anita Friedman Fine Arts",40.7747950531062,-73.9634852483584,"Upper East Side-Carnegie Hill","art_gallery"
"354","Annex the",40.7517512447562,-74.0072691859354,"Hudson Yards-Chelsea-Flatiron-Union Square","art_gallery"
"355","Annie Yau Gallery",40.7888275219098,-73.9731862878712,"Upper West Side","art_gallery"
"356","Annina Nosei Gallery",40.7474571090923,-74.0060330717837,"Hudson Yards-Chelsea-Flatiron-Union Square","art_gallery"
"357","Anthony Grant Inc",40.7640309203872,-73.9759512909941,"Midtown-Midtown South","art_gallery"
"358","Antik",40.7186136816009,-74.0055964292369,"SoHo-TriBeCa-Civic Center-Little Italy","art_gallery"
"359","Antiquarium Fine Ancient Arts Gallery Ltd",40.7737082977377,-73.9644858369447,"Upper East Side-Carnegie Hill","art_gallery"
"360","Anton Kern Gallery Inc",40.7462669891968,-74.0071625805658,"Hudson Yards-Chelsea-Flatiron-Union Square","art_gallery"
"361","Apex Art",40.7190294239963,-74.0044289111745,"SoHo-TriBeCa-Civic Center-Little Italy","art_gallery"
"362","April's Gallery",40.8255071100437,-73.9477984775635,"Hamilton Heights","art_gallery"
"363","Arader W Graham Gallery",40.7719198127942,-73.9650678078769,"Upper East Side-Carnegie Hill","art_gallery"
"364","Arash Gallery",40.7583549833327,-73.9663249546371,"Turtle Bay-East Midtown","art_gallery"
"365","Arcadia Fine Arts",40.7223356054714,-74.0019125546834,"SoHo-TriBeCa-Civic Center-Little Italy","art_gallery"
"366","Archibald Arts",40.7604567636444,-73.994472218693,"Clinton","art_gallery"
"367","Archive Consulting & Management Services",40.7494561874707,-74.0040681639513,"Hudson Yards-Chelsea-Flatiron-Union Square","art_gallery"
"368","Ariel Meyerowitz Gallery",40.7456227215007,-73.9572054049886,"Hunters Point-Sunnyside-West Maspeth","art_gallery"
"369","Ariston Development Group",40.7386304489778,-74.0072067242672,"West Village","art_gallery"
"370","Arleen G Becker Gallery Inc",40.7455732793339,-73.980787124269,"Murray Hill-Kips Bay","art_gallery"
"371","Art & Interiors Inc",40.760955579654,-73.9662564615996,"Turtle Bay-East Midtown","art_gallery"
"372","Art Advice Corporate Art Consultants",40.7445720735255,-73.9784463276041,"Murray Hill-Kips Bay","art_gallery"
"373","Art Advisory Svces Inc",40.7640011860426,-73.9693823636723,"Upper East Side-Carnegie Hill","art_gallery"
"374","Art Asap",40.7641627549093,-73.9910217877715,"Clinton","art_gallery"
"375","Art Auction Advisory Svces",40.7640609227888,-73.9693451143046,"Upper East Side-Carnegie Hill","art_gallery"
"376","Art Avenues Inc",40.7788682485713,-73.9848418325962,"Lincoln Square","art_gallery"
"377","Art Finds",40.7901749213408,-73.9797338927344,"Upper West Side","art_gallery"
"378","Blumka Gallery",40.7696872751833,-73.9598603190264,"Lenox Hill-Roosevelt Island","art_gallery"
"379","Art Gallery & Custom Framing",40.7324338500047,-73.9917929285039,"West Village","art_gallery"
"380","Art In General",40.7180947042727,-74.0018773422686,"SoHo-TriBeCa-Civic Center-Little Italy","art_gallery"
"381","Art Loft Gallery",40.7211922600436,-73.9977383407549,"SoHo-TriBeCa-Civic Center-Little Italy","art_gallery"
"382","Art Merchandising and Media Inc",40.7666845930837,-73.9695816255518,"Upper East Side-Carnegie Hill","art_gallery"
"383","Art Metaphysics Education",40.7560679857518,-73.9923366100984,"Clinton","art_gallery"
"384","Art Placement International",40.7773303295646,-73.9587826738105,"Upper East Side-Carnegie Hill","art_gallery"
"385","Art Projects International Inc",40.7222980409134,-74.0094034334855,"SoHo-TriBeCa-Civic Center-Little Italy","art_gallery"
"386","Art Resources Transfer Inc",40.7499845702377,-74.0059509083127,"Hudson Yards-Chelsea-Flatiron-Union Square","art_gallery"
"387","Art Student Showcase Inc",40.7231085640351,-73.9972072580079,"SoHo-TriBeCa-Civic Center-Little Italy","art_gallery"
"388","Art Vue",40.6715295221145,-73.9800983571645,"Park Slope-Gowanus","art_gallery"
"389","Art Wise",40.7449890363878,-73.9932420048726,"Hudson Yards-Chelsea-Flatiron-Union Square","art_gallery"
"390","Arte Primitivo-Howard S Rose Gallery",40.7678429949988,-73.9692938018383,"Upper East Side-Carnegie Hill","art_gallery"
"391","Artefina International Inc",40.5965473731582,-73.9752336598251,"Gravesend","art_gallery"
"392","Artemis Fine Arts Inc",40.7727904034665,-73.9652033898329,"Upper East Side-Carnegie Hill","art_gallery"
"393","Artenova Ltd",40.7664797495551,-73.98126402552,"Midtown-Midtown South","art_gallery"
"394","Arterres",40.7228726230024,-73.9971550819622,"SoHo-TriBeCa-Civic Center-Little Italy","art_gallery"
"395","Artique-the Art of Framing Inc",40.7953270899423,-73.9706746134907,"Upper West Side","art_gallery"
"396","Artist Prod Gallery",40.7203408202499,-74.0008502019352,"SoHo-TriBeCa-Civic Center-Little Italy","art_gallery"
"397","Artists Space",40.7216994348547,-74.001875703915,"SoHo-TriBeCa-Civic Center-Little Italy","art_gallery"
"398","Artlife Gallery",40.7254150049812,-74.0047665519191,"SoHo-TriBeCa-Civic Center-Little Italy","art_gallery"
"399","Art-Lore Inc",40.7380657597996,-73.9557856886022,"Greenpoint","art_gallery"
"400","Artrepreneur",40.7746994848625,-73.9651138926146,"Upper East Side-Carnegie Hill","art_gallery"
"401","Arts Action Research",40.6866417833695,-73.9833874920031,"DUMBO-Vinegar Hill-Downtown Brooklyn-Boerum Hill","art_gallery"
"402","Arts at University Settlement/Speyer Hall",40.7206801519162,-73.9911973015772,"Chinatown","art_gallery"
"403","Arts Du Monde",40.7435839680673,-73.9909283617162,"Hudson Yards-Chelsea-Flatiron-Union Square","art_gallery"
"404","Arts India",40.7432050607897,-73.9887987609664,"Hudson Yards-Chelsea-Flatiron-Union Square","art_gallery"
"405","Arts Proper International Inc",40.7634697520814,-73.9756204160662,"Midtown-Midtown South","art_gallery"
"406","Artscope Inc",40.7632541205262,-73.970091994453,"Upper East Side-Carnegie Hill","art_gallery"
"407","Ash Fine Art",40.7755358374959,-73.9618353271081,"Upper East Side-Carnegie Hill","art_gallery"
"408","Asher Gallant Gallery",40.7606796002838,-73.9725912628201,"Midtown-Midtown South","art_gallery"
"409","Ashione Art Gallery",40.7357164995609,-74.0028045810281,"West Village","art_gallery"
"410","Ashoka Crafts",40.7815713260077,-73.9799452270497,"Upper West Side","art_gallery"
"411","Atelier A-E Ent",40.7423738862043,-73.9908759440345,"Hudson Yards-Chelsea-Flatiron-Union Square","art_gallery"
"412","Atelier International Art Group Inc",40.7248060892154,-73.9967118772213,"SoHo-TriBeCa-Civic Center-Little Italy","art_gallery"
"413","Atlantic Gallery",40.7474664621994,-73.9914310750451,"Midtown-Midtown South","art_gallery"
"414","Atmosphere Galleries Inc",40.7447624654263,-74.0060086313028,"Hudson Yards-Chelsea-Flatiron-Union Square","art_gallery"
"415","Audiello Fine Art Inc",40.7500945512357,-74.0044220151553,"Hudson Yards-Chelsea-Flatiron-Union Square","art_gallery"
"416","Audrey C Art & Jewels",40.7632499715738,-73.9657204000875,"Upper East Side-Carnegie Hill","art_gallery"
"417","Australian Aboriginal Fine Art Gallery Of New York",40.7950169062784,-73.950154157507,"East Harlem South","art_gallery"
"418","Av Art Gallery & Custom Framing Inc",40.7446157514592,-73.9993801357222,"Hudson Yards-Chelsea-Flatiron-Union Square","art_gallery"
"419","Available Art Llc",40.6853087925185,-73.9852928649304,"DUMBO-Vinegar Hill-Downtown Brooklyn-Boerum Hill","art_gallery"
"420","AVC Contemporary Arts Gallery",40.7621837928572,-73.9716780257899,"Midtown-Midtown South","art_gallery"
"421","Avshalom Eitan Fine Arts",40.8507579419418,-73.9386614826445,"Washington Heights South","art_gallery"
"422","Axelle Fine Art",40.688077775397,-73.98851197926,"DUMBO-Vinegar Hill-Downtown Brooklyn-Boerum Hill","art_gallery"
"423","Axelle Fine Arts Gallery Ltd",40.7241180015298,-74.0014904789681,"SoHo-TriBeCa-Civic Center-Little Italy","art_gallery"
"424","Aztec Marketing Co",40.7078985656335,-74.0064830864487,"Battery Park City-Lower Manhattan","art_gallery"
"425","Back To Africa Imports",40.7434715148243,-73.9886827693248,"Hudson Yards-Chelsea-Flatiron-Union Square","art_gallery"
"426","Back To Roots Inc",40.667315043316,-73.8758951087974,"East New York","art_gallery"
"427","Bag One Arts",40.7819524767272,-73.9760617170248,"Upper West Side","art_gallery"
"428","Balalaika Arts & Crafts From Russia & Former Ussr",40.7833684463273,-73.9465750551561,"Yorkville","art_gallery"
"429","BALMAR REALTY",40.7594509132231,-73.9690646648923,"Turtle Bay-East Midtown","art_gallery"
"430","Barbara Gladstone Gallery",40.7488803974505,-74.0045071460524,"Hudson Yards-Chelsea-Flatiron-Union Square","art_gallery"
"431","Baron Boisante Editions",40.7298871060491,-74.0072557541419,"West Village","art_gallery"
"432","Barrington Gallery of London Ltd",40.7565024334885,-73.9790815211505,"Midtown-Midtown South","art_gallery"
"433","Bayo Studios",40.7036526426615,-73.9351308599338,"Bushwick South","art_gallery"
"434","Beadleston Gallery",40.7626057748781,-73.9745173924471,"Midtown-Midtown South","art_gallery"
"435","Behr Thyssen Ltd",40.7221638952214,-74.0085419344536,"SoHo-TriBeCa-Civic Center-Little Italy","art_gallery"
"436","Belanthi",40.6892018188711,-73.9929238023326,"Carroll Gardens-Columbia Street-Red Hook","art_gallery"
"437","Bellwether Gallery",40.7447310240188,-74.0059259359394,"Hudson Yards-Chelsea-Flatiron-Union Square","art_gallery"
"438","Bench Dogs",40.7103215114287,-73.9662825755211,"North Side-South Side","art_gallery"
"439","Benedetti Gallery Inc",40.7232620449468,-73.9960374394727,"SoHo-TriBeCa-Civic Center-Little Italy","art_gallery"
"440","Bernarducci Meisel Gallery",40.7640650044101,-73.9760374405109,"Midtown-Midtown South","art_gallery"
"441","Bernstein David Primitive Art",40.7704290608856,-73.9637749077401,"Upper East Side-Carnegie Hill","art_gallery"
"442","Berry-Hill Galleries Inc",40.7708448312272,-73.9667430851897,"Upper East Side-Carnegie Hill","art_gallery"
"443","Beverly Sacks Fine Art",40.7617580230248,-73.9648004088197,"Lenox Hill-Roosevelt Island","art_gallery"
"444","Beyond the Wall",40.7544332831179,-73.9796753688077,"Midtown-Midtown South","art_gallery"
"445","BICYCLE PAINTINGS.COM",40.7186869176223,-73.9831470296597,"Lower East Side","art_gallery"
"446","Big Cat Gallery",40.7207993296625,-73.9886622811966,"Chinatown","art_gallery"
"447","Bill Bace Gallery",40.722521165519,-74.0027111165646,"SoHo-TriBeCa-Civic Center-Little Italy","art_gallery"
"448","Bill Hodges Gallery",40.7634370026062,-73.9755399933447,"Midtown-Midtown South","art_gallery"
"449","Bitforms",40.7464978740583,-74.0068296040574,"Hudson Yards-Chelsea-Flatiron-Union Square","art_gallery"
"450","Black & Black Art Gallery",40.7054239002491,-73.7933657552114,"Jamaica","art_gallery"
"451","Black & White Gallery Inc",40.7184423767598,-73.954642228681,"North Side-South Side","art_gallery"
"452","Bleier Milton A Corp",40.7596067631105,-73.9728719287899,"Midtown-Midtown South","art_gallery"
"453","Blue Mountain Gallery Inc",40.7492362516288,-74.004768415006,"Hudson Yards-Chelsea-Flatiron-Union Square","art_gallery"
"454","Bodanna Inc",40.726527210577,-73.9841197487225,"East Village","art_gallery"
"455","Bolivar Arellano Gallery",40.7276118317519,-73.9839161802816,"East Village","art_gallery"
"456","Bonakdar Jancou Gallery",40.7470016870531,-74.0061178559961,"Hudson Yards-Chelsea-Flatiron-Union Square","art_gallery"
"457","BORDEN JANET INC",40.7240463037634,-73.9976847834456,"SoHo-TriBeCa-Civic Center-Little Italy","art_gallery"
"458","Bose Pacia Modern",40.7497602212938,-74.0035934860582,"Hudson Yards-Chelsea-Flatiron-Union Square","art_gallery"
"459","Bound and Unbound",40.7515981435589,-74.0068716237162,"Hudson Yards-Chelsea-Flatiron-Union Square","art_gallery"
"460","Bowery Gallery",40.7492698417932,-74.0048454378513,"Hudson Yards-Chelsea-Flatiron-Union Square","art_gallery"
"461","Brenda Taylor Gallery",40.7493502458375,-74.0038257700273,"Hudson Yards-Chelsea-Flatiron-Union Square","art_gallery"
"462","Bridgewater Gallery of Fine Arts Inc",40.7229259249037,-73.9841258621366,"East Village","art_gallery"
"463","Bronx River Art Center",40.8405970878315,-73.8781550729331,"East Tremont","art_gallery"
"464","Brooke Alexander Gallery",40.7232092508349,-74.0022616567622,"SoHo-TriBeCa-Civic Center-Little Italy","art_gallery"
"465","Brooklyn Arts Exchange",40.6697694183521,-73.9854328200482,"Park Slope-Gowanus","art_gallery"
"466","Brooklyn Fireproof",40.7078879285306,-73.9291802810962,"Bushwick North","art_gallery"
"467","Broome Street Gallery the",40.7233862859691,-74.0026245300172,"SoHo-TriBeCa-Civic Center-Little Italy","art_gallery"
"468","Bruce Palmer Galleries",40.7921997948922,-73.9771267412271,"Upper West Side","art_gallery"
"469","Bruce Silverstein Gallery",40.7471257261403,-74.0051471895697,"Hudson Yards-Chelsea-Flatiron-Union Square","art_gallery"
"470","Bruton Gallery Inc",40.7643109824557,-73.9698450606071,"Upper East Side-Carnegie Hill","art_gallery"
"471","Buzzco Assoc Inc",40.7258306651047,-73.9937552859994,"West Village","art_gallery"
"472","C & M Arts",40.7756174727799,-73.9620295103372,"Upper East Side-Carnegie Hill","art_gallery"
"473","Caelum Gallery",40.7500230538169,-74.0044673178296,"Hudson Yards-Chelsea-Flatiron-Union Square","art_gallery"
"474","Caldwell Snyder Gallery",40.725891164189,-74.000417607028,"SoHo-TriBeCa-Civic Center-Little Italy","art_gallery"
"475","Candyland Films",40.720281531979,-74.0009172153009,"SoHo-TriBeCa-Civic Center-Little Italy","art_gallery"
"476","Caravan International Co",40.778138153456,-73.9535025179309,"Yorkville","art_gallery"
"477","Carboni Inc",40.7554595518781,-73.9802169796403,"Midtown-Midtown South","art_gallery"
"478","Carley Ann M Atty",40.7226336903508,-73.9973611388614,"SoHo-TriBeCa-Civic Center-Little Italy","art_gallery"
"479","Carlton Rochell",40.7623872472458,-73.9717066366589,"Midtown-Midtown South","art_gallery"
"480","Carnegie Frame Inc",40.7638554123893,-73.9807711155165,"Midtown-Midtown South","art_gallery"
"481","Cartoon Gallery",40.7203813929252,-73.8460503904122,"Forest Hills","art_gallery"
"482","Cartoonews Gallery",40.7623132924761,-73.974107770942,"Midtown-Midtown South","art_gallery"
"483","Casa Linda Galleries Inc",40.7833524730425,-73.9473830025364,"Yorkville","art_gallery"
"484","Casey M Kaplan Inc",40.741132496582,-74.006529234817,"West Village","art_gallery"
"485","Catherine Conway Inc",40.7368446325662,-73.9982052041324,"West Village","art_gallery"
"486","Cavaliero Fine Arts",40.7528232662304,-73.9915692553904,"Midtown-Midtown South","art_gallery"
"487","Cavin-Morris",40.7238990925482,-73.9977986844257,"SoHo-TriBeCa-Civic Center-Little Italy","art_gallery"
"488","Cds Gallery",40.7757041382927,-73.9611709199669,"Upper East Side-Carnegie Hill","art_gallery"
"489","Celtic Art",40.746401426012,-73.944767834243,"Hunters Point-Sunnyside-West Maspeth","art_gallery"
"490","Century Artists Inc",40.7494197274902,-74.004735581356,"Hudson Yards-Chelsea-Flatiron-Union Square","art_gallery"
"491","Ceres Gallery",40.7513240583896,-74.0045236866989,"Hudson Yards-Chelsea-Flatiron-Union Square","art_gallery"
"492","Ceres Gallery",40.7247949632529,-73.9970372852082,"SoHo-TriBeCa-Civic Center-Little Italy","art_gallery"
"493","Cfm Gallery",40.7245719123004,-73.9994250962,"SoHo-TriBeCa-Civic Center-Little Italy","art_gallery"
"494","Chappell Gallery",40.7501574302364,-74.0044616632538,"Hudson Yards-Chelsea-Flatiron-Union Square","art_gallery"
"495","Chat Noir Design",40.8592973741707,-73.9320745895011,"Washington Heights North","art_gallery"
"496","Cheim & Read",40.7500194095172,-74.0051358349696,"Hudson Yards-Chelsea-Flatiron-Union Square","art_gallery"
"497","Chelsea Ceramic Guild",40.7423875992364,-73.9986944107475,"Hudson Yards-Chelsea-Flatiron-Union Square","art_gallery"
"498","China 2000",40.7628538314786,-73.9731962671554,"Midtown-Midtown South","art_gallery"
"499","China 2000 Fine Arts",40.7690097569823,-73.9533429886399,"Lenox Hill-Roosevelt Island","art_gallery"
"500","Chinatown Frame & Art Inc",40.7167051342993,-73.9965876789511,"SoHo-TriBeCa-Civic Center-Little Italy","art_gallery"
"501","Chinoh Art Gallery",40.7361540619712,-73.9931595572897,"Hudson Yards-Chelsea-Flatiron-Union Square","art_gallery"
"502","Chowder Inc",40.7391534071891,-73.9928117143286,"Hudson Yards-Chelsea-Flatiron-Union Square","art_gallery"
"503","Christiane Nienaber Contemporary Art",40.7219973135754,-73.9922738303453,"Chinatown","art_gallery"
"504","Christine Burgin Gallery",40.741998855079,-73.9995450801484,"Hudson Yards-Chelsea-Flatiron-Union Square","art_gallery"
"505","Cinque Gallery",40.72397735349,-73.9975929351828,"SoHo-TriBeCa-Civic Center-Little Italy","art_gallery"
"506","Claire Oliver Fine Arts Inc",40.7500888339516,-74.0033848523875,"Hudson Yards-Chelsea-Flatiron-Union Square","art_gallery"
"507","Clampart",40.7497751755629,-74.0046388004567,"Hudson Yards-Chelsea-Flatiron-Union Square","art_gallery"
"508","Clementine Gallery",40.7520932945419,-74.0061079410453,"Hudson Yards-Chelsea-Flatiron-Union Square","art_gallery"
"509","Clinton Hill Simply Art & Framing",40.6941997383364,-73.9608185885534,"Clinton Hill","art_gallery"
"510","Coda Gallery",40.7228952359004,-74.0015642895927,"SoHo-TriBeCa-Civic Center-Little Italy","art_gallery"
"511","Cole Sylvan Gallery",40.7646577002425,-73.9773563996203,"Midtown-Midtown South","art_gallery"
"512","College of Staten Island - Center for the Arts",40.5996621162475,-74.1496949864486,"New Springville-Bloomfield-Travis","art_gallery"
"513","Columbia University - Miriam and Ira D.Wallach Art Gallery",40.8085410317555,-73.9604168979652,"Morningside Heights","art_gallery"
"514","Columbus Art Gallery Inc",40.7883127424392,-73.9713050841387,"Upper West Side","art_gallery"
"515","Columbus Circle Gallery",40.7673375968386,-73.9812276512969,"Midtown-Midtown South","art_gallery"
"516","Commerce Graphics Ltd Inc",40.7677416752634,-73.9523297264538,"Lenox Hill-Roosevelt Island","art_gallery"
"517","Common Ground",40.7386880809658,-73.995334526273,"Hudson Yards-Chelsea-Flatiron-Union Square","art_gallery"
"518","Conner Rosenkranz",40.7734656555806,-73.9649095893906,"Upper East Side-Carnegie Hill","art_gallery"
"519","Contemporary African Art",40.8032137373524,-73.9688003181848,"Morningside Heights","art_gallery"
"520","Contemporary art gallery in Chelsea. Wooster Gardens",40.723672590569,-73.9975943026384,"SoHo-TriBeCa-Civic Center-Little Italy","art_gallery"
"521","Cook Fine Art",40.7772426372886,-73.9611024266289,"Upper East Side-Carnegie Hill","art_gallery"
"522","Coploff Gallery",40.7500204668497,-74.0045545317428,"Hudson Yards-Chelsea-Flatiron-Union Square","art_gallery"
"523","Cordier & Ekstrom Inc",40.7695126592301,-73.9535297347176,"Lenox Hill-Roosevelt Island","art_gallery"
"524","Corning Gallery at Steuben, The",40.7644962494597,-73.9702816642659,"Upper East Side-Carnegie Hill","art_gallery"
"525","Cowles Charles Gallery Inc",40.7493373568062,-74.005420842142,"Hudson Yards-Chelsea-Flatiron-Union Square","art_gallery"
"526","Creative Art USA Inc",40.7261545563199,-74.0049746202106,"SoHo-TriBeCa-Civic Center-Little Italy","art_gallery"
"527","Crg Art Gallery",40.7477919702817,-74.0061386189327,"Hudson Yards-Chelsea-Flatiron-Union Square","art_gallery"
"528","Criswick Assoc",40.7490194777082,-73.9718048919558,"Turtle Bay-East Midtown","art_gallery"
"529","Crown Art Gallery Inc",40.7606295440217,-73.9851025949332,"Midtown-Midtown South","art_gallery"
"530","Crystal Art Gallery",40.7441370503339,-73.9884446804236,"Hudson Yards-Chelsea-Flatiron-Union Square","art_gallery"
"531","Cuban Art Space",40.7486595395263,-73.9942263261618,"Midtown-Midtown South","art_gallery"
"532","Cuchifritos",40.7191348725151,-73.9876303645867,"Chinatown","art_gallery"
"533","Culture Art Gallery Llc",40.7247752936454,-74.0013730500698,"SoHo-TriBeCa-Civic Center-Little Italy","art_gallery"
"534","Culture Crossing Inc",40.7855821106627,-73.9546692976047,"Upper East Side-Carnegie Hill","art_gallery"
"535","Curatorial Art Advisory Service",40.7372143372536,-73.991839113497,"Hudson Yards-Chelsea-Flatiron-Union Square","art_gallery"
"536","Cypher Editions",40.7215234778183,-74.0030602341102,"SoHo-TriBeCa-Civic Center-Little Italy","art_gallery"
"537","Czech Center",40.7691222874289,-73.9564219966173,"Lenox Hill-Roosevelt Island","art_gallery"
"538","Dactyl Foundation for the Arts",40.7223207198123,-74.0031844826256,"SoHo-TriBeCa-Civic Center-Little Italy","art_gallery"
"539","Dai Ichi Arts",40.7539545559931,-73.9695931202914,"Turtle Bay-East Midtown","art_gallery"
"540","Dalva Brothers Inc",40.7746668483208,-73.9629010449053,"Upper East Side-Carnegie Hill","art_gallery"
"541","D'amelio-Terras",40.7476106515966,-74.0055520248167,"Hudson Yards-Chelsea-Flatiron-Union Square","art_gallery"
"542","Damp Frog Productions Inc",40.7145704613157,-73.9922713550215,"Chinatown","art_gallery"
"543","Danese",40.7491726316296,-74.0052678336323,"Hudson Yards-Chelsea-Flatiron-Union Square","art_gallery"
"544","Danette Koke Fine Art",40.7367955054058,-74.0085504221156,"West Village","art_gallery"
"545","Daniel H Roberts Studio",40.7232344998253,-74.0091086253153,"SoHo-TriBeCa-Civic Center-Little Italy","art_gallery"
"546","David Killen Fine Arts",40.7820153932528,-73.9506679611836,"Yorkville","art_gallery"
"547","David Nolan New York",40.7522144614158,-74.0026781778608,"Hudson Yards-Chelsea-Flatiron-Union Square","art_gallery"
"548","Davis Leron Galries",40.7672367947544,-73.9691083217996,"Upper East Side-Carnegie Hill","art_gallery"
"549","DC Moore Gallery",40.762669507041,-73.9744720532229,"Midtown-Midtown South","art_gallery"
"550","Dca Gallery",40.7475576530191,-74.0054235189461,"Hudson Yards-Chelsea-Flatiron-Union Square","art_gallery"
"551","De Nagy Tibor Art Gallery",40.762707431012,-73.9745785289785,"Midtown-Midtown South","art_gallery"
"552","Dean Andree M",40.77982311307,-73.9570627331135,"Upper East Side-Carnegie Hill","art_gallery"
"553","Debs & Co",40.750174752747,-74.0038523425808,"Hudson Yards-Chelsea-Flatiron-Union Square","art_gallery"
"554","Greer Gallery Inc",40.7239389109311,-74.0018631528749,"SoHo-TriBeCa-Civic Center-Little Italy","art_gallery"
"555","Grimm Jay Gallery",40.7510595149452,-74.0021216820991,"Hudson Yards-Chelsea-Flatiron-Union Square","art_gallery"
"556","Guggenheim Asher Assocs Inc",40.7372488643944,-73.9990622110042,"West Village","art_gallery"
"557","Guggenheim Asher Assocs Inc",40.7371845757352,-73.9991099849024,"West Village","art_gallery"
"558","Guy Regal Ltd",40.761886438356,-73.9649562668514,"Lenox Hill-Roosevelt Island","art_gallery"
"559","Hall & Knight U S A Ltd",40.7689101556237,-73.9679445487542,"Upper East Side-Carnegie Hill","art_gallery"
"560","Hammer Galleries",40.7640147036909,-73.975734568345,"Midtown-Midtown South","art_gallery"
"561","Hanover Sq Gallery",40.6769883412931,-73.9712838130853,"Prospect Heights","art_gallery"
"562","Harari & Johns Inc",40.7781055753244,-73.9597755348045,"Upper East Side-Carnegie Hill","art_gallery"
"563","Harlan & Weaver Intaglio",40.715502079284,-73.9930550891307,"Chinatown","art_gallery"
"564","Harlem Art Gallery",40.8036180850416,-73.9480516874543,"Central Harlem South","art_gallery"
"565","Hazlitt Gooden & Fox",40.7747164728001,-73.9640012351852,"Upper East Side-Carnegie Hill","art_gallery"
"566","Healing Arts",40.7196784520752,-73.9600200157191,"North Side-South Side","art_gallery"
"567","Heilman Phillip Douglas",40.6984896734577,-73.9249369990239,"Bushwick South","art_gallery"
"568","Heller Gallery",40.7412076472972,-74.0067206428654,"West Village","art_gallery"
"569","Helly Nahmad Gallery Inc",40.7744164309695,-73.9632377948972,"Upper East Side-Carnegie Hill","art_gallery"
"570","Hemingway African Gallery",40.7581241408079,-73.9655457665656,"Turtle Bay-East Midtown","art_gallery"
"571","Henoch Gallery",40.7500281858361,-74.0053147575198,"Hudson Yards-Chelsea-Flatiron-Union Square","art_gallery"
"572","Hirschl & Adler Galleries",40.7707608414485,-73.9664764108113,"Upper East Side-Carnegie Hill","art_gallery"
"573","Historical Design Collection Inc",40.7613893799576,-73.9628477304034,"Lenox Hill-Roosevelt Island","art_gallery"
"574","Hochman Irena Fine Art Ltd",40.7784856105219,-73.9607834120155,"Upper East Side-Carnegie Hill","art_gallery"
"575","HOFFELD JEFFREY & CO",40.7781624433142,-73.9489083009915,"Yorkville","art_gallery"
"576","Holmberg I",40.751502846134,-73.9806590163429,"Murray Hill-Kips Bay","art_gallery"
"577","Honda Fine Art",40.7264283762552,-73.9924631988007,"West Village","art_gallery"
"578","Hoorn-Ashby Gallery",40.7678828832527,-73.9686037943399,"Upper East Side-Carnegie Hill","art_gallery"
"579","Horan Vivian Fine Art",40.7685370700951,-73.9670738408604,"Upper East Side-Carnegie Hill","art_gallery"
"580","Horus Art Enterprises",40.7648038198177,-73.9635107620172,"Lenox Hill-Roosevelt Island","art_gallery"
"581","Howard Greenberg Gallery",40.7624450477733,-73.9718678296905,"Midtown-Midtown South","art_gallery"
"582","Howard Nowes Ancient Art",40.7469111990393,-73.9881482696365,"Midtown-Midtown South","art_gallery"
"583","Howard Scott Gallery",40.7746111958977,-73.9534544835411,"Yorkville","art_gallery"
"584","Hubert Gallery",40.7769475140321,-73.9618763847937,"Upper East Side-Carnegie Hill","art_gallery"
"585","Hubert Gallery North",40.776872063779,-73.9619340342521,"Upper East Side-Carnegie Hill","art_gallery"
"586","Hut Gallery the",40.6880717671047,-73.9869806582123,"DUMBO-Vinegar Hill-Downtown Brooklyn-Boerum Hill","art_gallery"
"587","Hutton Leonard Galleries",40.7623751038355,-73.9719159712491,"Midtown-Midtown South","art_gallery"
"588","Hutton Leonard Galleries Facs",40.7623128614794,-73.9719624218033,"Midtown-Midtown South","art_gallery"
"589","Hw Gerst",40.7753171750245,-73.9645803581064,"Upper East Side-Carnegie Hill","art_gallery"
"590","I & L Image Corp",40.7465421870857,-74.006949918067,"Hudson Yards-Chelsea-Flatiron-Union Square","art_gallery"
"591","I C Editions",40.7487735123196,-74.0051616940202,"Hudson Yards-Chelsea-Flatiron-Union Square","art_gallery"
"592","I Perry",40.7256186677228,-74.0097832652551,"SoHo-TriBeCa-Civic Center-Little Italy","art_gallery"
"593","Illustration House Inc",40.7442485809345,-73.9925224538279,"Hudson Yards-Chelsea-Flatiron-Union Square","art_gallery"
"594","Images Corporate Art Services",40.7570848042634,-73.963087221447,"Turtle Bay-East Midtown","art_gallery"
"595","Incredibleart.Com Inc",40.7209122065296,-74.0020440530794,"SoHo-TriBeCa-Civic Center-Little Italy","art_gallery"
"596","Indians On Columbus",40.7837347915193,-73.9746495549126,"Upper West Side","art_gallery"
"597","Infinity Fine Arts Inc",40.7495164965394,-74.0037102484856,"Hudson Yards-Chelsea-Flatiron-Union Square","art_gallery"
"598","Inner City Art Gallery Inc",40.813529295245,-73.9445680919914,"Central Harlem North-Polo Grounds","art_gallery"
"599","Innovative Art Gallery Inc",40.7381693057824,-73.9995451370765,"West Village","art_gallery"
"600","Inter Art Gallery",40.7480555404125,-74.004188909242,"Hudson Yards-Chelsea-Flatiron-Union Square","art_gallery"
"601","International Print Center New York",40.750047179686,-74.0042906236417,"Hudson Yards-Chelsea-Flatiron-Union Square","art_gallery"
"602","Irit Baniel Studio",40.7164045276523,-73.9573539817423,"North Side-South Side","art_gallery"
"603","Ise Art Foundation",40.7239222712083,-73.9986441185563,"SoHo-TriBeCa-Civic Center-Little Italy","art_gallery"
"604","Isselbacher Gallery Inc",40.7803305697796,-73.9582225802436,"Upper East Side-Carnegie Hill","art_gallery"
"605","J Cacciola Galleries",40.7520609174061,-74.0058368821662,"Hudson Yards-Chelsea-Flatiron-Union Square","art_gallery"
"606","J M Art Gallery",40.7658255105934,-73.9815461538997,"Midtown-Midtown South","art_gallery"
"607","Jadite Galleries",40.7639646094937,-73.9896747288487,"Clinton","art_gallery"
"608","Jain Marunouchi Gallery",40.7634301348053,-73.9756521520288,"Midtown-Midtown South","art_gallery"
"609","James Cohan Gallery",40.7503964010776,-74.004098701593,"Hudson Yards-Chelsea-Flatiron-Union Square","art_gallery"
"610","James Graham & Sons Gallery",40.775881158159,-73.9626750664657,"Upper East Side-Carnegie Hill","art_gallery"
"611","Jane St Lifer Fine Art Inc",40.7770141032583,-73.9886244173836,"Lincoln Square","art_gallery"
"612","Janoray Charles Llc",40.7748444073569,-73.9641605361277,"Upper East Side-Carnegie Hill","art_gallery"
"613","Japanese Art Dealers Assoc of Ny",40.7747919241119,-73.963943589935,"Upper East Side-Carnegie Hill","art_gallery"
"614","Jbpa Llc",40.7368327579981,-73.9967778291044,"West Village","art_gallery"
"615","Jeff Lewis Studio",40.7232129784633,-74.0089605740671,"SoHo-TriBeCa-Civic Center-Little Italy","art_gallery"
"616","Jeffrey Coploff Fine Art Ltd",40.7498546283831,-74.0038221874815,"Hudson Yards-Chelsea-Flatiron-Union Square","art_gallery"
"617","Jimmy's Art Gallery",40.7781549040049,-73.9812267127122,"Lincoln Square","art_gallery"
"618","Joan Peck Limited Art Gallery",40.7735010365916,-73.9788563459445,"Lincoln Square","art_gallery"
"619","Joan Whalen Fine Art",40.7633870470229,-73.9755649350029,"Midtown-Midtown South","art_gallery"
"620","John Elder Gallery",40.7466408445976,-74.0067713435631,"Hudson Yards-Chelsea-Flatiron-Union Square","art_gallery"
"621","John McEnroe Gallery",40.7220869861887,-74.0021361573146,"SoHo-TriBeCa-Civic Center-Little Italy","art_gallery"
"622","John Stevenson Gallery",40.7457269647233,-74.0000774177737,"Hudson Yards-Chelsea-Flatiron-Union Square","art_gallery"
"623","Jonathan Shorr Gallery",40.7241187489645,-73.9965710538264,"SoHo-TriBeCa-Civic Center-Little Italy","art_gallery"
"624","Judaica Illuminations",40.6167755775592,-73.9639588637267,"Ocean Parkway South","art_gallery"
"625","Julie Artisans Gallery",40.7677819037585,-73.9686676988225,"Upper East Side-Carnegie Hill","art_gallery"
"626","Julie Saul Gallery",40.7478979170292,-74.0061986585495,"Hudson Yards-Chelsea-Flatiron-Union Square","art_gallery"
"627","JUNE BATEMAN FINE  GALLERY",40.7436756523184,-73.9893707041302,"Hudson Yards-Chelsea-Flatiron-Union Square","art_gallery"
"628","K S Art",40.7176412391603,-74.0051874758482,"SoHo-TriBeCa-Civic Center-Little Italy","art_gallery"
"629","Kahan Fine Art Galleries Ltd",40.76682971486,-73.9550439286995,"Lenox Hill-Roosevelt Island","art_gallery"
"630","Kaller-Kimche R Inc",40.7734563721284,-73.9647320711488,"Upper East Side-Carnegie Hill","art_gallery"
"631","Kang Byung",40.7786717129144,-73.9612897063007,"Upper East Side-Carnegie Hill","art_gallery"
"632","Kapoor Galleries Inc",40.7752396017267,-73.9625790697184,"Upper East Side-Carnegie Hill","art_gallery"
"633","Kashya Hildebrand",40.749689464502,-74.0044329696033,"Hudson Yards-Chelsea-Flatiron-Union Square","art_gallery"
"634","Katherine Blackburne Studios",40.7232527099729,-74.0092436136626,"SoHo-TriBeCa-Civic Center-Little Italy","art_gallery"
"635","Kathryn Markel Fine Arts Inc",40.7467194668584,-74.0069386573335,"Hudson Yards-Chelsea-Flatiron-Union Square","art_gallery"
"636","Katz Steven",40.7355223599401,-73.9892039114299,"Gramercy","art_gallery"
"637","Keats R Stuart",40.74776391183,-73.9794984119582,"Murray Hill-Kips Bay","art_gallery"
"638","Keith Copley Gallery",40.7556925141738,-74.0007425919774,"Hudson Yards-Chelsea-Flatiron-Union Square","art_gallery"
"639","Keith de Lellis Gallery",40.7766416205278,-73.9615565163657,"Upper East Side-Carnegie Hill","art_gallery"
"640","Kelly June Gallery",40.7250739131651,-73.9975386471639,"SoHo-TriBeCa-Civic Center-Little Italy","art_gallery"
"641","Kem Art Studio",40.7359309921483,-73.9940933906887,"West Village","art_gallery"
"642","Kempner Jim Fine Art",40.7479636296205,-74.0042550680361,"Hudson Yards-Chelsea-Flatiron-Union Square","art_gallery"
"643","Kenkeleba Gallery",40.7220367694131,-73.9828654117974,"Lower East Side","art_gallery"
"644","Kent Gallery",40.7498699182394,-74.0047385759829,"Hudson Yards-Chelsea-Flatiron-Union Square","art_gallery"
"645","Kentler International Drawing Space",40.6769414134496,-74.0129928623173,"Carroll Gardens-Columbia Street-Red Hook","art_gallery"
"646","Keogh & Riehlman Fine Art",40.7725325063612,-73.9654179568219,"Upper East Side-Carnegie Hill","art_gallery"
"647","Keya Gallery",40.7076294490186,-74.0107696128982,"Battery Park City-Lower Manhattan","art_gallery"
"648","Kim Foster Gallery",40.7465493403789,-74.0068653260068,"Hudson Yards-Chelsea-Flatiron-Union Square","art_gallery"
"649","Kind Phylis Gallery",40.7465239874652,-73.9958687612381,"Hudson Yards-Chelsea-Flatiron-Union Square","art_gallery"
"650","King David Art Gallery",40.7431598549469,-73.9940040813002,"Hudson Yards-Chelsea-Flatiron-Union Square","art_gallery"
"651","Kinz, Tillou + Feigen",40.7466394012111,-74.0070100824377,"Hudson Yards-Chelsea-Flatiron-Union Square","art_gallery"
"652","Klagsbrun Nicole Gallery",40.7499730987667,-74.0043359250725,"Hudson Yards-Chelsea-Flatiron-Union Square","art_gallery"
"653","Klotz Sirmon Gallery",40.7496241609256,-74.0039571744768,"Hudson Yards-Chelsea-Flatiron-Union Square","art_gallery"
"654","Kokon Inc",40.7674431920895,-73.9674822030151,"Upper East Side-Carnegie Hill","art_gallery"
"655","Kraus Carole Ltd",40.7552543023171,-73.9935019027026,"Hudson Yards-Chelsea-Flatiron-Union Square","art_gallery"
"656","Kraushaar Galleries",40.7756401934384,-73.9611544113061,"Upper East Side-Carnegie Hill","art_gallery"
"657","Kravets Wehby",40.7471085298797,-74.0060410929643,"Hudson Yards-Chelsea-Flatiron-Union Square","art_gallery"
"658","Kravets Wehby Gallery",40.7470724899337,-74.0062746760874,"Hudson Yards-Chelsea-Flatiron-Union Square","art_gallery"
"659","Krienke Kendra",40.783675720505,-73.9709419887963,"Upper West Side","art_gallery"
"660","L A Cotton",40.763904879908,-73.970826332177,"Upper East Side-Carnegie Hill","art_gallery"
"661","La Belle Epoque Vintage Posters Inc",40.7783851124039,-73.9783536827291,"Lincoln Square","art_gallery"
"662","Lally J J & Co",40.7624745857583,-73.9719328106951,"Midtown-Midtown South","art_gallery"
"663","Lamontage",40.7499561488775,-74.0058727525357,"Hudson Yards-Chelsea-Flatiron-Union Square","art_gallery"
"664","Landy Fine Art",40.7149237601423,-73.985179837063,"Lower East Side","art_gallery"
"665","Langotsky Gamba",40.7270818006592,-74.0086174538272,"SoHo-TriBeCa-Civic Center-Little Italy","art_gallery"
"666","Lehman College - Art Gallery",40.8745897504695,-73.8929100567056,"Van Cortlandt Village","art_gallery"
"667","Lehmann Maupin",40.7501980450846,-74.0048138198085,"Hudson Yards-Chelsea-Flatiron-Union Square","art_gallery"
"668","Lelong Galerie",40.750043737855,-74.0041954793473,"Hudson Yards-Chelsea-Flatiron-Union Square","art_gallery"
"669","Lemmons Durham Contemporary Art",40.7498648388226,-74.0059361733029,"Hudson Yards-Chelsea-Flatiron-Union Square","art_gallery"
"670","Lennon Weinberg Inc",40.7491104876011,-74.004121507366,"Hudson Yards-Chelsea-Flatiron-Union Square","art_gallery"
"671","Leo Castelli Gallery",40.7750123039619,-73.9637106461774,"Upper East Side-Carnegie Hill","art_gallery"
"672","Leo Kaplan Modern Ltd",40.7610913788873,-73.9700775175485,"Turtle Bay-East Midtown","art_gallery"
"673","Leo Koenig Inc",40.7488776680494,-74.0058839181097,"Hudson Yards-Chelsea-Flatiron-Union Square","art_gallery"
"674","Leon Tovar Gallery",40.7711219876015,-73.9665298184664,"Upper East Side-Carnegie Hill","art_gallery"
"675","Leslie-Lohman Gay Art Foundation",40.7256572817161,-74.0002743019033,"SoHo-TriBeCa-Civic Center-Little Italy","art_gallery"
"676","Levin Betty",40.7624033596015,-73.9719851736821,"Midtown-Midtown South","art_gallery"
"677","Levine Elizabeth & Assocs",40.789866364443,-73.9775223383123,"Upper West Side","art_gallery"
"678","Lewitt Fine Art Gallery",40.7763584296055,-73.9627130050034,"Upper East Side-Carnegie Hill","art_gallery"
"679","Lexington Art & Frame Co",40.7651740893292,-73.9662623437149,"Upper East Side-Carnegie Hill","art_gallery"
"680","Limner Gallery",40.7475882186442,-73.9890587366886,"Midtown-Midtown South","art_gallery"
"681","Decor Art Gallery",40.747225030421,-73.9766440980413,"Murray Hill-Kips Bay","art_gallery"
"682","Decor Art Gallery Inc",40.7404255519148,-73.9815438584201,"Murray Hill-Kips Bay","art_gallery"
"683","Decor Art Gallery Inc",40.7419962802747,-73.9975355463325,"Hudson Yards-Chelsea-Flatiron-Union Square","art_gallery"
"684","Decor Art Gallery VII+",40.7363620369381,-73.9852737318424,"Gramercy","art_gallery"
"685","Deitch Projects",40.7220336383837,-74.0025682719408,"SoHo-TriBeCa-Civic Center-Little Italy","art_gallery"
"686","Demirjian Torkom",40.7742407375237,-73.9638499143942,"Upper East Side-Carnegie Hill","art_gallery"
"687","Demu Gallery",40.6863958203331,-73.9740748997437,"Fort Greene","art_gallery"
"688","Denise Bibro Fine Art",40.7467723645114,-74.0069518211628,"Hudson Yards-Chelsea-Flatiron-Union Square","art_gallery"
"689","Dennis De Lorenzo Gallery",40.7658147362305,-73.9702792910707,"Upper East Side-Carnegie Hill","art_gallery"
"690","Derek Eller Gallery",40.7445071437083,-73.9882530663562,"Hudson Yards-Chelsea-Flatiron-Union Square","art_gallery"
"691","Dickinson Roundell Inc",40.7682543971224,-73.9685454092276,"Upper East Side-Carnegie Hill","art_gallery"
"692","Dollhaus",40.7108412765794,-73.9673007617708,"North Side-South Side","art_gallery"
"693","Donson Theodore B Ltd",40.7633207574432,-73.9757360256425,"Midtown-Midtown South","art_gallery"
"694","Dorfman Projects",40.7467194734865,-74.0068277465087,"Hudson Yards-Chelsea-Flatiron-Union Square","art_gallery"
"695","Dorsky Carol",40.7730369265716,-73.9649229006335,"Upper East Side-Carnegie Hill","art_gallery"
"696","Doug Meyer Fine Art",40.6127827160993,-73.9369317584929,"Georgetown-Marine Park-Bergen Beach-Mill Basin","art_gallery"
"697","Downtown Arts Festival",40.7098133323389,-74.0073781056117,"Battery Park City-Lower Manhattan","art_gallery"
"698","Downtown Music Gallery",40.7116538526647,-73.9959259244248,"Chinatown","art_gallery"
"699","Dranoff Fine Art",40.7249965758697,-73.9973855624596,"SoHo-TriBeCa-Civic Center-Little Italy","art_gallery"
"700","Dresden Art Galries",40.7497550588118,-73.9909924432316,"Midtown-Midtown South","art_gallery"
"701","DUMBO Arts Center",40.7034731995561,-73.9898127488512,"DUMBO-Vinegar Hill-Downtown Brooklyn-Boerum Hill","art_gallery"
"702","Duncan Ligoa",40.7716985524746,-73.9659083071097,"Upper East Side-Carnegie Hill","art_gallery"
"703","E Art Group",40.7488345265814,-73.993907820777,"Midtown-Midtown South","art_gallery"
"704","Eastern Arts Inc",40.7379948928299,-74.0067081057825,"West Village","art_gallery"
"705","Edward Thorp Gallery",40.7498105640673,-74.0060811486703,"Hudson Yards-Chelsea-Flatiron-Union Square","art_gallery"
"706","Edwynn Houk Gallery",40.763410831787,-73.9733423875681,"Midtown-Midtown South","art_gallery"
"707","Eileen Walters Gallery",40.7849833459644,-73.9810948465197,"Upper West Side","art_gallery"
"708","Elga Wimmer",40.7501023073048,-74.0043268726979,"Hudson Yards-Chelsea-Flatiron-Union Square","art_gallery"
"709","Elizabeth Dee Gallery",40.7468852010301,-74.0075331313866,"Hudson Yards-Chelsea-Flatiron-Union Square","art_gallery"
"710","Elizabeth Harris Gallery",40.7465793688266,-74.0067713373147,"Hudson Yards-Chelsea-Flatiron-Union Square","art_gallery"
"711","Elizabeth Mayer Fine Art",40.7722281483574,-73.9638379501551,"Upper East Side-Carnegie Hill","art_gallery"
"712","Elizabeth Moore Fine Art",40.7691095209409,-73.962856214475,"Upper East Side-Carnegie Hill","art_gallery"
"713","Elizabeth Wang Gallery",40.7655975115604,-73.9716270266764,"Upper East Side-Carnegie Hill","art_gallery"
"714","Elkon Gallery Inc",40.7777237988838,-73.96186682369,"Upper East Side-Carnegie Hill","art_gallery"
"715","Elliot Stevens Ltd",40.7565026008385,-73.9733459669883,"Turtle Bay-East Midtown","art_gallery"
"716","Emily Harvey Gallery",40.7235058370544,-73.9990017478766,"SoHo-TriBeCa-Civic Center-Little Italy","art_gallery"
"717","Environment Home Furnshngs Inc",40.7620820272215,-73.9655540843516,"Lenox Hill-Roosevelt Island","art_gallery"
"718","Equatorial America Inc",40.755759496755,-73.9642471184159,"Turtle Bay-East Midtown","art_gallery"
"719","Equitable Appraisal Co Inc",40.7739769533774,-73.9642893599761,"Upper East Side-Carnegie Hill","art_gallery"
"720","Equity Art Brokers",40.7552841788991,-73.9661194048795,"Turtle Bay-East Midtown","art_gallery"
"721","Equity Art Brokers",40.7436771577712,-73.9911464072931,"Hudson Yards-Chelsea-Flatiron-Union Square","art_gallery"
"722","Erotics Gallery",40.7370704573286,-73.9905718626765,"Hudson Yards-Chelsea-Flatiron-Union Square","art_gallery"
"723","Esso Gallery",40.7502496948832,-74.0038183665298,"Hudson Yards-Chelsea-Flatiron-Union Square","art_gallery"
"724","Exhibit A",40.7250566923065,-73.9976921485965,"SoHo-TriBeCa-Civic Center-Little Italy","art_gallery"
"725","Exit Art",40.7562429325534,-73.9985044905658,"Hudson Yards-Chelsea-Flatiron-Union Square","art_gallery"
"726","Exotiqa II",40.8466071224078,-73.7859788480413,"Pelham Bay-Country Club-City Island","art_gallery"
"727","Eye Jammie Fine Arts Gallery",40.7492669905201,-74.0043083596361,"Hudson Yards-Chelsea-Flatiron-Union Square","art_gallery"
"728","Eyebeam Atelier",40.7469864823583,-74.0070563976045,"Hudson Yards-Chelsea-Flatiron-Union Square","art_gallery"
"729","Ezair Gallery",40.7721460910767,-73.9648895737397,"Upper East Side-Carnegie Hill","art_gallery"
"730","Faith Art Gallery Corp",40.6914579728958,-73.9850218371372,"DUMBO-Vinegar Hill-Downtown Brooklyn-Boerum Hill","art_gallery"
"731","Feature Inc",40.7493852755145,-74.0046574263387,"Hudson Yards-Chelsea-Flatiron-Union Square","art_gallery"
"732","Fields Walter",40.724344525211,-73.9799941617584,"Lower East Side","art_gallery"
"733","Fifty-Five Mercer Gallery",40.7219901938664,-74.0012205866917,"SoHo-TriBeCa-Civic Center-Little Italy","art_gallery"
"734","Findlay David Galleries",40.7767111281234,-73.9578646830218,"Upper East Side-Carnegie Hill","art_gallery"
"735","Findlay David Jr Fine Art",40.7623166607669,-73.9717488700255,"Midtown-Midtown South","art_gallery"
"736","Findlay Peter Gallery",40.7622377333724,-73.9718003919237,"Midtown-Midtown South","art_gallery"
"737","Fine Art Acquisitions",40.7235933155635,-74.0002997415753,"SoHo-TriBeCa-Civic Center-Little Italy","art_gallery"
"738","Fine Art Alacarte",40.7063668617482,-74.0038015630181,"Battery Park City-Lower Manhattan","art_gallery"
"739","Fine Art Services & Transport",40.7382323887112,-73.9288394089851,"Hunters Point-Sunnyside-West Maspeth","art_gallery"
"740","First Street Gallery",40.7499679270114,-74.0044344658955,"Hudson Yards-Chelsea-Flatiron-Union Square","art_gallery"
"741","Fischbach Gallery",40.7498967051209,-74.0060211260622,"Hudson Yards-Chelsea-Flatiron-Union Square","art_gallery"
"742","Flushing Art Gallery",40.7614173227276,-73.8304113790469,"Flushing","art_gallery"
"743","Focal Point Gallery",40.847560778162,-73.7868597607751,"Pelham Bay-Country Club-City Island","art_gallery"
"744","Folin Riva Inc",40.746605085308,-74.0070739935505,"Hudson Yards-Chelsea-Flatiron-Union Square","art_gallery"
"745","Folklorica",40.7598343459659,-73.9750391888327,"Midtown-Midtown South","art_gallery"
"746","Forbes Magazine Galleries",40.7350219111188,-73.9947948282229,"West Village","art_gallery"
"747","Forrest Scott Group",40.7239752588647,-73.9964730863879,"SoHo-TriBeCa-Civic Center-Little Italy","art_gallery"
"748","Fortress Fae Worldwide",40.7433566312903,-73.9565368541996,"Hunters Point-Sunnyside-West Maspeth","art_gallery"
"749","Fortress Ny",40.7433898305589,-73.9567241263446,"Hunters Point-Sunnyside-West Maspeth","art_gallery"
"750","Fortuna Fine Arts Ltd",40.7748598645171,-73.9634411547785,"Upper East Side-Carnegie Hill","art_gallery"
"751","Forum Gallery",40.7632934526437,-73.973423312028,"Midtown-Midtown South","art_gallery"
"752","Fowa Enterprises Corp",40.7133156513754,-73.9970125926335,"Chinatown","art_gallery"
"753","Franklin Bowles Galleries",40.7252668336075,-74.0009498666726,"SoHo-TriBeCa-Civic Center-Little Italy","art_gallery"
"754","Franklin Parrasch Gallery",40.7633720834622,-73.9754342245949,"Midtown-Midtown South","art_gallery"
"755","Frederick Schultz Ancient Art",40.7869022834323,-73.9806988449464,"Upper West Side","art_gallery"
"756","Fredericks Freiser Gallery",40.7470688884823,-74.0051961895703,"Hudson Yards-Chelsea-Flatiron-Union Square","art_gallery"
"757","Frederieke Taylor Gallery",40.74784537035,-74.006238295025,"Hudson Yards-Chelsea-Flatiron-Union Square","art_gallery"
"758","Frei-Nathan Susan Fine Works On Paper Llc",40.7743313626883,-73.9547311606178,"Yorkville","art_gallery"
"759","Friedman Vallois Llc",40.7685893026939,-73.9674438587324,"Upper East Side-Carnegie Hill","art_gallery"
"760","Friedrich Petzel Gallery",40.7478539922336,-74.0060955850063,"Hudson Yards-Chelsea-Flatiron-Union Square","art_gallery"
"761","Frielich Bros-Deutsch Bros",40.727224780222,-73.9948141219529,"West Village","art_gallery"
"762","Friends of Bezalel Academy",40.7531396669112,-73.9807312734369,"Murray Hill-Kips Bay","art_gallery"
"763","Fulton Plaza",40.7095897724339,-74.0070468307206,"Battery Park City-Lower Manhattan","art_gallery"
"764","Fulton St Art Gallery",40.7074687411589,-74.0058906552173,"Battery Park City-Lower Manhattan","art_gallery"
"765","G P L Promotions Ltd",40.7495556396618,-73.9820716102324,"Murray Hill-Kips Bay","art_gallery"
"766","Gagosian Gallery Chelsea",40.7490834388607,-74.0053920090529,"Hudson Yards-Chelsea-Flatiron-Union Square","art_gallery"
"767","Gagosian Gallery Uptown",40.7748350592535,-73.9635804473823,"Upper East Side-Carnegie Hill","art_gallery"
"768","Galerie Des Arts Ltd",40.7744187192751,-73.9642049319559,"Upper East Side-Carnegie Hill","art_gallery"
"769","Galerie Thomas",40.7358122335487,-74.0028370439319,"West Village","art_gallery"
"770","Galleria On Third",40.7464019802216,-73.9771880235982,"Murray Hill-Kips Bay","art_gallery"
"771","Galleria Ramis Barquet Ny Ltd",40.7624142229462,-73.9717918765114,"Midtown-Midtown South","art_gallery"
"772","Gallery 151",40.7267432913594,-73.9920471370052,"West Village","art_gallery"
"773","Gallery 292",40.7250511592619,-74.0000864617862,"SoHo-TriBeCa-Civic Center-Little Italy","art_gallery"
"774","Gallery 49",40.7618383888081,-73.9875149217617,"Clinton","art_gallery"
"775","Gallery 71 Inc",40.7696362226824,-73.9629959871501,"Upper East Side-Carnegie Hill","art_gallery"
"776","Gallery 91",40.7214057665586,-74.0021573834103,"SoHo-TriBeCa-Civic Center-Little Italy","art_gallery"
"777","Gallery at the American Bible Society",40.7702539849777,-73.9827387609065,"Lincoln Square","art_gallery"
"778","Gallery at the New York School of Interior Design",40.7685641703181,-73.9624636285004,"Upper East Side-Carnegie Hill","art_gallery"
"779","Gallery Bai Inc",40.7605964648216,-73.9962793201646,"Clinton","art_gallery"
"780","Gallery Henoch",40.7501269513015,-74.0052608577384,"Hudson Yards-Chelsea-Flatiron-Union Square","art_gallery"
"781","Gallery of Ireland",40.7479598690938,-73.9136990085251,"Hunters Point-Sunnyside-West Maspeth","art_gallery"
"782","Gardner & Barr Inc",40.7617480641619,-73.9627827578386,"Lenox Hill-Roosevelt Island","art_gallery"
"783","Garth Clark Gallery",40.7632854214458,-73.9756454068126,"Midtown-Midtown South","art_gallery"
"784","Garth Clark Gallery's Project Space",40.7461805391859,-73.948318992294,"Hunters Point-Sunnyside-West Maspeth","art_gallery"
"785","Gasser & Grunert",40.7455837758405,-74.0073621955294,"Hudson Yards-Chelsea-Flatiron-Union Square","art_gallery"
"786","Gavin Brown's Enterprise Corp",40.730549913428,-74.0085930244375,"West Village","art_gallery"
"787","Generous Miracles Space Ltd",40.7466937287619,-74.0070100881543,"Hudson Yards-Chelsea-Flatiron-Union Square","art_gallery"
"788","George Adams Gallery",40.7502539940052,-74.0040267783162,"Hudson Yards-Chelsea-Flatiron-Union Square","art_gallery"
"789","George Billis Gallery",40.7500775625259,-74.0054274765327,"Hudson Yards-Chelsea-Flatiron-Union Square","art_gallery"
"790","Geos Art Gallery and Tuxedos",40.6920336142463,-73.7506113995981,"St. Albans","art_gallery"
"791","Gerold Wunderlich & Co",40.7637415742442,-73.9765953071867,"Midtown-Midtown South","art_gallery"
"792","Gian Enzo Sperone",40.729780288386,-74.0080326146114,"West Village","art_gallery"
"793","Giraud Pissarro Segalot",40.7690669716293,-73.9635510484415,"Upper East Side-Carnegie Hill","art_gallery"
"794","Gleason Tim Gallery",40.7217015976953,-73.9942730182635,"SoHo-TriBeCa-Civic Center-Little Italy","art_gallery"
"795","Global Passages Inc",40.7621453720727,-73.9655111637798,"Lenox Hill-Roosevelt Island","art_gallery"
"796","Godel & Co Inc",40.7718113892852,-73.9647860146929,"Upper East Side-Carnegie Hill","art_gallery"
"797","Goedhuis Contemporary Ltd",40.7739671083205,-73.9629717259921,"Upper East Side-Carnegie Hill","art_gallery"
"798","Goethe-Institut Wyoming Building",40.7263431913139,-73.991118752324,"East Village","art_gallery"
"799","Golden Caren Fine Arts",40.7500893791276,-74.0045046997817,"Hudson Yards-Chelsea-Flatiron-Union Square","art_gallery"
"800","Goodman James Gallery",40.7622775433504,-73.9718797176169,"Midtown-Midtown South","art_gallery"
"801","Grant Gallery",40.7204466100616,-74.0024428400941,"SoHo-TriBeCa-Civic Center-Little Italy","art_gallery"
"802","Great Modern Pictures",40.7484327467021,-73.9856542214359,"Midtown-Midtown South","art_gallery"
"803","Greeley Square Gallery",40.7470427519568,-73.987690781701,"Midtown-Midtown South","art_gallery"
"804","Green Essie Galleries Inc",40.8263814767388,-73.9446695065763,"Hamilton Heights","art_gallery"
"805","Greene Naftali Inc",40.7500359783972,-74.0043835006039,"Hudson Yards-Chelsea-Flatiron-Union Square","art_gallery"
"806","Greene Space Gallery",40.724508986148,-74.0000400725794,"SoHo-TriBeCa-Civic Center-Little Italy","art_gallery"
"807","Littlejohn Contemporary Art",40.7623398346136,-73.9720341556309,"Midtown-Midtown South","art_gallery"
"808","Lizan Tops Associates",40.7849198970968,-73.9571327678197,"Upper East Side-Carnegie Hill","art_gallery"
"809","Lladro Museum & Collector's Society",40.7641296430966,-73.9762573213922,"Midtown-Midtown South","art_gallery"
"810","Lladro USA",40.7642106911287,-73.9761960209464,"Midtown-Midtown South","art_gallery"
"811","Location One",40.7209872944836,-74.002465027358,"SoHo-TriBeCa-Civic Center-Little Italy","art_gallery"
"812","Lombard-Fried Fine Arts Inc",40.7503211913664,-74.0037662685784,"Hudson Yards-Chelsea-Flatiron-Union Square","art_gallery"
"813","Long Fine Art",40.7417200530566,-74.0064506337982,"Hudson Yards-Chelsea-Flatiron-Union Square","art_gallery"
"814","Lower Manhattan Cultural Council",40.7066044194852,-74.0062520814683,"Battery Park City-Lower Manhattan","art_gallery"
"815","Lublin Mary Fine Arts",40.7689716378212,-73.963459441367,"Upper East Side-Carnegie Hill","art_gallery"
"816","Lucas Schoormans Gallery",40.749761458358,-74.0037421381176,"Hudson Yards-Chelsea-Flatiron-Union Square","art_gallery"
"817","Ludlow 38",40.7160736730368,-73.9901461351481,"Chinatown","art_gallery"
"818","Luhring Augustine Gallery Inc",40.749108936403,-74.0051017956319,"Hudson Yards-Chelsea-Flatiron-Union Square","art_gallery"
"819","Lumbard Jean",40.7875969650995,-73.9543753234142,"East Harlem South","art_gallery"
"820","Lun Yee Assn",40.7167977227951,-73.9969683352414,"SoHo-TriBeCa-Civic Center-Little Italy","art_gallery"
"821","Lunarbase Inc",40.7142746494891,-73.9603443195085,"North Side-South Side","art_gallery"
"822","Lurie Tamar & Ranan",40.7624670004199,-73.9739876240289,"Midtown-Midtown South","art_gallery"
"823","M & R Sayer Fine Art Llc",40.7701225272882,-73.9630531621982,"Upper East Side-Carnegie Hill","art_gallery"
"824","M K J Art Gallery",40.7381966577583,-73.9824201260912,"Gramercy","art_gallery"
"825","MacCarone Inc",40.7309314365807,-74.0084802974304,"West Village","art_gallery"
"826","Malcolm Christian T Fine Arts Managemnt Svc",40.7484691693558,-73.9940229631139,"Midtown-Midtown South","art_gallery"
"827","Manhattan Art",40.7503125094461,-73.9844837959265,"Midtown-Midtown South","art_gallery"
"828","Mansion Gracie Gallery",40.7274079574537,-73.9888692388919,"East Village","art_gallery"
"829","Marbella Gallery",40.7714436947803,-73.965304999879,"Upper East Side-Carnegie Hill","art_gallery"
"830","Marc Jancou Contemporary",40.7274929221971,-73.9945829791445,"West Village","art_gallery"
"831","Marc Jancou Fine Art Ltd",40.7687705626813,-73.9672701941887,"Upper East Side-Carnegie Hill","art_gallery"
"832","Marcus Curt Gallery Inc",40.7319955135462,-73.9970342589284,"West Village","art_gallery"
"833","Margaret Thatcher Projects",40.7485026754745,-74.0054867415908,"Hudson Yards-Chelsea-Flatiron-Union Square","art_gallery"
"834","Margo Feiden Galleries Ltd",40.7325749213291,-73.9948212913365,"West Village","art_gallery"
"835","Marian Goodman Gallery",40.7633870724301,-73.9756850214431,"Midtown-Midtown South","art_gallery"
"836","Marianne Boesky Gallery",40.7488391680008,-74.0042404164484,"Hudson Yards-Chelsea-Flatiron-Union Square","art_gallery"
"837","Marie Walsh Sharpe Art Foundation Art",40.7232195707651,-74.0093829482451,"SoHo-TriBeCa-Civic Center-Little Italy","art_gallery"
"838","Markey Lawrence Inc",40.7738897947384,-73.9630305974673,"Upper East Side-Carnegie Hill","art_gallery"
"839","Marlborough Gallery",40.7635577962961,-73.9763072464542,"Midtown-Midtown South","art_gallery"
"840","Martin Lawrence Galleries",40.7261290017199,-74.0002434322682,"SoHo-TriBeCa-Civic Center-Little Italy","art_gallery"
"841","Martinez Gallery",40.7507808655543,-74.0030962964977,"Hudson Yards-Chelsea-Flatiron-Union Square","art_gallery"
"842","Mary Boone Gallery",40.7633567600777,-73.9732063898559,"Midtown-Midtown South","art_gallery"
"843","Mary Ryan Gallery",40.763343985093,-73.9755955388057,"Midtown-Midtown South","art_gallery"
"844","Master Drawing Assoc",40.6880592373947,-73.9299222643525,"Stuyvesant Heights","art_gallery"
"845","Master Framemakers",40.7619329988947,-73.9650895881697,"Lenox Hill-Roosevelt Island","art_gallery"
"846","Mathes Barbara Gallery",40.7769665862945,-73.9621648427065,"Upper East Side-Carnegie Hill","art_gallery"
"847","Matthew Marks Gallery - 22nd St.",40.7472974149691,-74.0058965829313,"Hudson Yards-Chelsea-Flatiron-Union Square","art_gallery"
"848","Matthew Marks Gallery - 24th St.",40.7489710759727,-74.0047472790251,"Hudson Yards-Chelsea-Flatiron-Union Square","art_gallery"
"849","Max Protetech Gallery",40.7474980282723,-74.0052971914245,"Hudson Yards-Chelsea-Flatiron-Union Square","art_gallery"
"850","Maxwell Davidson Gallery",40.762641974396,-73.9746159396965,"Midtown-Midtown South","art_gallery"
"851","Mc Dougal A",40.7865511858265,-73.9809130378686,"Upper West Side","art_gallery"
"852","McCarron Paul Fine Prints & Drawings",40.7759268479055,-73.9627865736675,"Upper East Side-Carnegie Hill","art_gallery"
"853","McGinnis Cheryl Gallery",40.7546799700949,-73.992145827746,"Hudson Yards-Chelsea-Flatiron-Union Square","art_gallery"
"854","McKee Gallery",40.7632375195901,-73.9732946664364,"Midtown-Midtown South","art_gallery"
"855","McKenzie Fine Art Inc",40.7494363855362,-74.0037714072592,"Hudson Yards-Chelsea-Flatiron-Union Square","art_gallery"
"856","Medialia Corp",40.7555993228522,-73.9931453631252,"Clinton","art_gallery"
"857","Mehu Gallery",40.7947991767716,-73.9636809905264,"Upper West Side","art_gallery"
"858","Meisel Louis K Gallery",40.7256943351909,-74.0004792798924,"SoHo-TriBeCa-Civic Center-Little Italy","art_gallery"
"859","Meisel Susan P Decorative Arts",40.7257688741544,-74.000420494427,"SoHo-TriBeCa-Civic Center-Little Italy","art_gallery"
"860","Merrin Gallery",40.7627539710044,-73.9746895340178,"Midtown-Midtown South","art_gallery"
"861","Merton Simpson Gallery Inc",40.7454474019981,-73.9896586590619,"Hudson Yards-Chelsea-Flatiron-Union Square","art_gallery"
"862","Messineo Atr Projects",40.7485996065341,-73.9939322911435,"Midtown-Midtown South","art_gallery"
"863","Metro Art",40.7133589592815,-73.8745032538873,"Middle Village","art_gallery"
"864","Metro Art and Frame",40.8860495372563,-73.9111565063977,"Spuyten Duyvil-Kingsbridge","art_gallery"
"865","Metro Pictures",40.7489549316221,-74.0045937267485,"Hudson Yards-Chelsea-Flatiron-Union Square","art_gallery"
"866","Miakey Art Gallery",40.6402548222534,-74.0085555793075,"Sunset Park East","art_gallery"
"867","Michael Werner Gallery",40.7752470914846,-73.9642620856143,"Upper East Side-Carnegie Hill","art_gallery"
"868","Michail- Lombardo Gallery",40.7698414557171,-73.96654242387,"Upper East Side-Carnegie Hill","art_gallery"
"869","Michel Soskine Inc",40.7761149774519,-73.9606906372302,"Upper East Side-Carnegie Hill","art_gallery"
"870","Michelle Rosenfeld Gallery",40.77625969157,-73.9627890505795,"Upper East Side-Carnegie Hill","art_gallery"
"871","Miele Frank J Gallery",40.7781698529012,-73.9610646184826,"Upper East Side-Carnegie Hill","art_gallery"
"872","Miller Geisler Gallery Llc",40.7495285455035,-74.004026259643,"Hudson Yards-Chelsea-Flatiron-Union Square","art_gallery"
"873","Miller Laurence Gallery Inc",40.7632316464472,-73.9755326157083,"Midtown-Midtown South","art_gallery"
"874","Mimi Ferzt Inc",40.7236907495411,-74.0007460348667,"SoHo-TriBeCa-Civic Center-Little Italy","art_gallery"
"875","Minetta Brook Inc",40.7194907042497,-74.0090173769994,"SoHo-TriBeCa-Civic Center-Little Italy","art_gallery"
"876","Mip Art Realty Inc",40.7229698776924,-74.0002834994417,"SoHo-TriBeCa-Civic Center-Little Italy","art_gallery"
"877","Mitchell Algus Gallery",40.7495397514391,-74.0037861385374,"Hudson Yards-Chelsea-Flatiron-Union Square","art_gallery"
"878","Mitchell-Innes & Nash",40.7759931533258,-73.9625796104965,"Upper East Side-Carnegie Hill","art_gallery"
"879","Mixed Greens Gallery",40.75030912807,-74.0038784019635,"Hudson Yards-Chelsea-Flatiron-Union Square","art_gallery"
"880","Mobile Concept Inc",40.7619241713819,-73.8309558665646,"Flushing","art_gallery"
"881","Modern Art & Framing",40.7645553713602,-73.9803220407843,"Midtown-Midtown South","art_gallery"
"882","Moeller Achim Fine Art Ltd",40.7662743662589,-73.9686360349933,"Upper East Side-Carnegie Hill","art_gallery"
"883","Momenta Art Gallery",40.7115004186299,-73.9629535507041,"North Side-South Side","art_gallery"
"884","Monalisa Art Gallery",40.7801087494709,-73.9466513812263,"Yorkville","art_gallery"
"885","Montserrat Gallery Inc",40.7247166953788,-73.9969295156587,"SoHo-TriBeCa-Civic Center-Little Italy","art_gallery"
"886","Mooney Robert J Arts Management",40.6890892212758,-73.9936147542435,"Carroll Gardens-Columbia Street-Red Hook","art_gallery"
"887","Morales David",40.7553958818089,-73.9928089751161,"Clinton","art_gallery"
"888","Morgan Art Consulting",40.7402544963851,-73.9857800311424,"Gramercy","art_gallery"
"889","Morning Star Gallery Ltd",40.7299252904358,-73.8578332596598,"Forest Hills","art_gallery"
"890","Naegele Amyas Bases & African Art",40.754486403498,-73.9943359123929,"Hudson Yards-Chelsea-Flatiron-Union Square","art_gallery"
"891","Naiman Lee Fine Art",40.7883444153208,-73.9676739474621,"Upper West Side","art_gallery"
"892","Nancy Hoffman Gallery Inc",40.7251802328135,-74.0010241036522,"SoHo-TriBeCa-Civic Center-Little Italy","art_gallery"
"893","Nancy Margolis Gallery Inc",40.7496465575122,-74.0041836453184,"Hudson Yards-Chelsea-Flatiron-Union Square","art_gallery"
"894","Natalie Karg Ltd",40.7553381053579,-73.9926656268671,"Clinton","art_gallery"
"895","Nathaniel Moore Llc",40.7203110625341,-74.0088638253243,"SoHo-TriBeCa-Civic Center-Little Italy","art_gallery"
"896","Navarra Enrico",40.762503483163,-73.9720003241182,"Midtown-Midtown South","art_gallery"
"897","Neal Meltzer Fine Arts",40.7629403937337,-73.9724195537305,"Midtown-Midtown South","art_gallery"
"898","Neikrug Marjorie Appraisals",40.7653688189766,-73.9662597934102,"Upper East Side-Carnegie Hill","art_gallery"
"899","Neuhoff Gallery Inc",40.7624328993632,-73.9720577509639,"Midtown-Midtown South","art_gallery"
"900","New Dorp Village Antiques Ltd",40.6284329276005,-74.115817552944,"New Brighton-Silver Lake","art_gallery"
"901","New York Art Expo Inc",40.7050003225385,-74.0096078613116,"Battery Park City-Lower Manhattan","art_gallery"
"902","New York Art Gallery",40.775828416993,-73.9497533973259,"Yorkville","art_gallery"
"903","New York Gallery Tours",40.7345952366273,-74.0039443430047,"West Village","art_gallery"
"904","Nexus Gallery Inc",40.7304249437144,-73.9839451177135,"East Village","art_gallery"
"905","Nohra Haime Gallery",40.7623700157912,-73.9721042005101,"Midtown-Midtown South","art_gallery"
"906","Nolan Eckman Gallery",40.7239782884956,-73.9977398962041,"SoHo-TriBeCa-Civic Center-Little Italy","art_gallery"
